name,address,phone,website,email,instagram,cuisine,opening_hours,lat,lon,osm_id
De Roode Leeuw,"Damrak 93, 1012LP, Amsterdam",,https://www.brasseriederoodeleeuw.nl/,,,,,52.3737595,4.8936095,34044093
Turbo,Amsterdam,,,,,,,52.3606446,4.925313,94829656
Meram,"Pretoriusstraat 22-H, 1092GG, Amsterdam",+31 20 3626420,https://meram.nl/,,,turkish,,52.3560114,4.9255949,95288389
Café Maxwell,"Beukenplein 27, 1092BB, Amsterdam",+31 20 772 6748,https://www.maxwellcafe.nl/nl/home,info@maxwellcafe.nl,@cafe_maxwell,international,Su-We 11:00-00:00; Fr-Sa 11:00-02:00; Th 11:00-01:00,52.3568021,4.9186525,95288416
ThaiCoon,"Beukenplein 10, 1091KG, Amsterdam",+31 20 362 3302,https://thaicoon.nl/amsterdam.html,,,thai,Mo-Su 15:00-00:00,52.3571368,4.9176581,95288419
Mojo,Amsterdam,+31 20 233 1367,,,,,Mo-Su 11:00-01:00,52.3547935,4.9281192,95288421
La Vallade,Amsterdam,,,,,,Mo-Su 17:30-21:00,52.3542383,4.9269508,95288423
Café-Restaurant Dauphine,"Prins Bernhardplein 175, 1097BL, Amsterdam",,https://caferestaurantdauphine.nl,,,,Mo-Fr 11:00-01:00; Sa-Su 12:00 - 01:00,52.3483698,4.9173053,95288426
Volt,"Ferdinand Bolstraat 178, 1072LT, Amsterdam",+31 20 471 5544,https://www.restaurantvolt.nl,,,french,,52.3514961,4.8911767,249327304
En Japanese kitchen & Sake bar,Amsterdam,,,,,japanese,,52.3511266,4.8895103,249327899
Utage Sake Bar,"Lekstraat 11, 1079EK, Amsterdam",,https://www.utage-sakebar.nl,,,japanese,Tu-Sa 17:00-23:00,52.3451944,4.9082519,249401845
Kong Kha,"Rijnstraat 87, 1079GZ, Amsterdam",+31 20 661 2578,,,,chinese,,52.3452521,4.9058841,249406236
I Trulli,"Rijnstraat 101, 1079HA, Amsterdam",,,,,italian,,52.3445658,4.9061298,249406237
Pizzeria San Marco,"Amstelkade 148A, 1078AW, Amsterdam",,,,,italian,,52.3481204,4.8909926,249442603
Kong Ming,"Rijnstraat 67, 1079GW, Amsterdam",,,,,chinese,,52.3457496,4.9057054,249443116
Papa,Amsterdam,,,,,,,52.3482353,4.9047332,249628961
Phukradung,Amsterdam,,,,,,,52.3514674,4.9034904,249628962
Frango,Amsterdam,,,,,,,52.353296,4.9027669,249628963
Kam Kee,"Ceintuurbaan 119, 1072EZ, Amsterdam",,,,,chinese,,52.3531295,4.892503,249628974
Vermeer,"Prins Hendrikkade 59-72, 1021AD, Amsterdam",+31 20 556 4885,https://www.restaurantvermeer.nl/,info@restaurantvermeer.nl,@restaurantvermeer,,We-Sa 18:00-20:30,52.3764859,4.9004724,251127910
Bravi Ragazzi,Amsterdam,,,,,,,52.3759544,4.8963754,251147176
Sweet Asia,Amsterdam,,,,,,"Mo,Tu,Th-Sa 12:30-21:30; Su 13:00-21:30",52.3631785,4.9290605,251150887
Nam Kee,"Geldersekade 117, 1011EN, Amsterdam",+31 20 639 2848,https://namkee.nl/,,,chinese;cantonese,Mo-Fr 16:00-23:30; Sa 14:30-23:30; Su 14:30-23:30,52.372991,4.9011953,251165503
Song Kwae,"Kloveniersburgwal 14, 1012CT, Amsterdam",,https://www.songkwae.nl,,,thai,,52.371915,4.8991163,251168505
A Fusion,Amsterdam,,,,,,"Mo-Th 16:00-22:30; Fr,Sa 12:00-23:15; Su 12:00-22:30",52.3732425,4.9001515,251177425
Nam Kee,"Zeedijk 111-113, 1012AV, Amsterdam",+31 20 624 3470,http://www.namkee.nl/,,,chinese;cantonese,Sun-Th 12:00-21:30; Fr-Sa 12:00-22:00,52.3737013,4.9003096,251177427
Ristorante Italiano Piccolo Mondo,Amsterdam,,,,,,,52.3740711,4.9017078,251177433
El Torado Grill,"Reguliersbreestraat 25, 1017CL, Amsterdam",+31 20 625 6600,https://eltorado.com/,,,argentinian;steak_house;burger,Mo-Su 12:00-00:00,52.3666908,4.8947159,251528277
De Jaren,"Nieuwe Doelenstraat 20, 1012CP, Amsterdam",,https://www.cafedejaren.nl,,,,Mo-Su 09:00-23:00,52.3680595,4.8953468,251823631
de Kluis,Amsterdam,,,,,,,52.371134,4.9117046,252143918
The Grasshopper,"Oudebrugsteeg 16, 1012JP, Amsterdam",+31 20 626 1259,https://www.thegrasshopper.nl,,,,,52.3754583,4.8974337,254039664
Java kitchen,Amsterdam,,,,,,,52.3526542,4.8889175,257441614
Goldcoast,"De corridor 2, 1101BD, Amsterdam",+31 20 567 2444,https://goldcoast-restaurant.nl/,,,,,52.3113257,4.9450524,263005477
Café-Restaurant Amsterdam,"Watertorenplein 6, 1051PA, Amsterdam",+31 20 682 2666,https://cradam.nl,,,,"Mo-Th,Su 10:30-00:00; Fr-Sa 10:30-01:00",52.3842205,4.8682145,283241256
Het Dorp,"Noordwal 1, 1021PX, Amsterdam",,https://www.hetdorp.amsterdam/,info@hetdorp.amsterdam,@hetdorp.amsterdam,,Th 16:00-24:00; Fr 16:00-01:00; Sa 14:00-01:00; Su 14:00-22:00,52.3811001,4.9128268,287295070
Cedars,"Heemstedestraat 80, 1058NP, Amsterdam",,https://www.cedars.nl,,,lebanese,Mo-Th 16:00-23:00; Fr 16:00-00:00; Sa 12:00-00:00; Su 12:00-23:00,52.3519506,4.8444223,287760322
Harbour Club Café,"Olympisch Stadion 35, 1076DE, Amsterdam",,https://theharbourclub.com/cafe-amsterdam,,,,,52.3424865,4.854536,302309462
Il Forno,Amsterdam,,,,,,Mo-Su 16:30-23:30,52.3689909,4.9217898,304076330
Waaghals,Amsterdam,+31 20 679 9609,https://waaghals.nl/,,,,,52.3571286,4.889014,305076371
Kikkie,"Prinsenstraat 30-H, 1015DD, Amsterdam",+31 20 224 6022,https://www.kikkie.amsterdam/,,,,"Mo-Th 12:00-24:00, Fr 12:00-02:00, Sa 11:00-02:00, Su 12:00-22:00",52.3780177,4.8865655,312068096
Bridges,"Oudezijds Voorburgwal 197, 1012EX, Amsterdam",,https://bridgesrestaurant.nl,,,,"Th,Fr 12:00-15:00, Sa,Su 13:00-15:00, Mo-Su 18:30-21:00",52.3709275,4.895255,318453914
Indian Spices & Vibes,"Ferdinand Bolstraat 172, 1072LT, Amsterdam",,https://indianspicesandvibes.nl/,,,indian,,52.3516358,4.8911783,332598830
Desa,"Ceintuurbaan 103, 1072EX, Amsterdam",,,,,indonesian,,52.3530404,4.8918487,332642297
Pizza Taxi Da Paolo & Seba,"Ceintuurbaan 121, 1072GA, Amsterdam",,,,,pizza,,52.3531385,4.8925821,332642301
Toko Talaad Thai,"Sarphatipark 18, 1072PA, Amsterdam",,,,,thai,,52.3540322,4.8938587,332661073
Ladybird Fried Chicken,"Sarphatipark 4-H, 1072PA, Amsterdam",,https://www.ladybirdfriedchicken.com/,,,,,52.3543439,4.8936555,332661074
Samba Kitchen,Amsterdam,,https://www.samba-kitchen.nl/,,,brazilian,,52.3527351,4.8895939,332689457
Thai Deum,Amsterdam,,https://www.thaideum.com/,,,thai,,52.3522054,4.8878941,332994756
Wild Sage,"Ceintuurbaan 228-H, 1072GE, Amsterdam",,https://wildsagefoods.nl/,,,greek,,52.3522926,4.8886309,332994768
Golden Chopsticks,"Oude Doelenstraat 1, 1012ED, Amsterdam",,,,,,,52.3717749,4.8963879,363719080
Eethuis Sie-Joe,"Gravenstraat, 1012NM, Amsterdam",,,,,,,52.3742998,4.8919511,364040518
Hotel De Goudfazant,"Aambeeldstraat 10 H, 1021KB, Amsterdam",+31 20 636 5170,https://hoteldegoudfazant.nl/,info@hoteldegoudfazant.nl,,,Mo off; Tu-Su 18:00+,52.3837626,4.9301104,380792649
Natraj,"Transvaalstraat 5, 1092HA, Amsterdam",,,,,indian,,52.355557,4.9274907,393136932
Fuku Ramen,"Ingogostraat 14A, 1092HZ, Amsterdam",+31 6 42608596,https://www.fukuramenamsterdam.com/,,@fuku_ramen_amsterdam,ramen,Th-Sa 18:00-23:00; Su 13:00-19:30,52.3552228,4.9257723,393137999
Rosarium,"Amstelpark 1, 1083HZ, Amsterdam",+31 20 644 4085,https://rosarium.net/,,,,,52.3318651,4.8915964,401830256
La Margarita,"Langebrugsteeg 6, 1012GB, Amsterdam",+31 20 624 0529,https://mexican.nl/,,,mexican,,52.3692724,4.8930721,413449806
La Favola,"Amstelveenseweg 143, 1075VZ, Amsterdam",,,,,italian,,52.3512001,4.85707,413624740
Cafe Maurits,"Hoofddorpplein 1, 1059CV, Amsterdam",,https://www.cafemaurits.nl,,,international,We-Th 17:30-22:00; Fr-Su 09:00-23:30,52.3508915,4.850327,413624747
Dizinghof,"Heemstedestraat 18, 1058NM, Amsterdam",,,,,grill,,52.3517667,4.8486443,413624761
Lokaal van de Stad,"Heemstedestraat 68, 1058NP, Amsterdam",+31 6 18318558,https://www.lokaalvandestad.nl,lokaalvandestad@gmail.com,,regional,"Su-Tu 08:30-01:00; Fr,Sa 08:30-02:00",52.3517075,4.8461606,413624765
Perla di Roma,"Johan Huizingalaan 177, 1065HZ, Amsterdam",+31 20 615 9074,https://www.perladiroma.com,info@perladiroma.com,,italian,Mo-Su 17:00-23:00,52.3584417,4.8276799,413642346
Roos Steakhouse,"Johan Huizingalaan 174, 1065JH, Amsterdam",+31 20 617 6268,,,,steak_house,,52.3585173,4.8268358,413642348
Du Maroc,"Comeniusstraat 513, 1065BX, Amsterdam",+31 20 617 3408,https://www.restaurantdumaroc.nl,,,grill;moroccan,Tu-Sa 11:00-23:00; Su 12:00-23:00,52.3591448,4.8262917,413642350
de Veranda,"Amstelveenseweg 764, 1081JK, Amsterdam",,https://www.deveranda.nl,,,,,52.3307698,4.8569481,420564566
Betty's,"Rijnstraat 75-HS, 1079GX, Amsterdam",,,,,,,52.3455467,4.9057738,427989087
Happy Corner,"Plantage Middenlaan 30, Amsterdam",,https://www.restauranthappycorner.nl/,,,chinese,,52.3662399,4.9118164,430686827
Agora,Amsterdam,,,,,,,52.3635596,4.911176,432855893
La Place,"Kalverstraat 203, 1012XC, Amsterdam",,https://www.laplace.com/,,,,,52.3676426,4.8924135,432862171
Pasouk,Amsterdam,,,,,thai,,52.3937619,4.9138248,437009593
Vatten Ramen,"Plantage Kerklaan 28, Amsterdam",,https://www.instagram.com/vattenramen/,,@vattenramen,ramen,,52.3660271,4.9116177,440009812
Jinso,"Johan Cruijff Boulevard 155, 1101EJ, Amsterdam",+31 20 697 4138,https://www.jinso.nl/,info@jinso.nl,,chinese,Mo-Su 11:30-24:00,52.3127382,4.944758,440356406
Pancakes Amsterdam,"Prinsengracht 277, 1016GW, Amsterdam",,https://pancakes.amsterdam/,,,pancakes,"Mo-Su,PH 09:00-17:00",52.3748634,4.8838557,440431999
Soenda Kelapa,"Utrechtsestraat 89-H, 1017VK, Amsterdam",+31 20 627 9416,https://www.soendakelapa.com,,,indonesian,We-Mo 18:00-23:00,52.3630054,4.8987669,447561385
Kramer,"Herengracht 515, 1017BV, Amsterdam",+31 20 320 8175,https://cafekramer.nl/,,,asian,,52.3654467,4.8926577,447564209
Jasmine,"Zeedijk 119, 1012AW, Amsterdam",+31 20 280 7841,https://padthai.world/,,,thai,Mo-Su 12:00-23:00,52.3735356,4.9003082,447566444
Bollywood Indian Restaurant,Amsterdam,,https://restaurantbollywood.nl/en/,,,indian,,52.3639694,4.8844033,447815483
Puri Mas Indonesisch Restaurant,"Lange Leidsedwarsstraat 37, 1017NG, Amsterdam",,https://www.purimas.nl/,,,indonesian,Tu-Su 17:00-22:30,52.3641036,4.8845382,447815843
Tashi Deleg,"Utrechtsestraat 65, 1017VJ, Amsterdam",+31 20 620 6624,http://tashideleg.nl/,,,tibetan;indonesian,Mo-Su 14:00-22:30,52.3634907,4.8985572,461796303
Wissenkerke-Sloterdijk,"Radarweg 236, 1043NV, Amsterdam",,https://www.wissenkerke-sloterdijk.nl/,,,,Mo-Fr 11:30-22:00,52.3871186,4.835454,465504865
Bir Tat,"Bos en Lommerweg 242, 1055EJ, Amsterdam",+31 20 684 7666,https://www.birtat.nl,,,shoarma,Mo-Su 09:00-01:00,52.3786322,4.8483173,465504873
Brasserie Keyzer,"Van Baerlestraat 96, 1071BB, Amsterdam",+31 20 675 1866,https://brasseriekeyzer.nl,,,,,52.3568126,4.8792088,469633864
Small Talk,"Van Baerlestraat 52, 1071BA, Amsterdam",,,,,,,52.3579755,4.878408,473854628
La Madonnina,"Rembrandtplein 12A-14, 1017CV, Amsterdam",,,,,italian,,52.3658484,4.8955024,474752594
Bunga Mawar,"Zeedijk 41, 1012AR, Amsterdam",,,,,indonesian,,52.3753852,4.901161,475208653
De Portugees,"Zeedijk 39, 1012AR, Amsterdam",,http://www.deportugees.com,,,portuguese,,52.3754456,4.9011363,475209057
Pancakes Amsterdam,"Berenstraat 38, 1016GH, Amsterdam",,https://www.pancakesamsterdam.com,,,pancake,Mo-Su 09:00-18:00,52.3704712,4.8832353,475217092
Bella Vita,"Burgemeester De Vlugtlaan 188, 1063BS, Amsterdam",,,,,italian,,52.3815999,4.8220792,476027647
The Pancake Bakery,"Prinsengracht 191, 1015DS, Amsterdam",+31 20 625 1333,https://www.pancake.nl,,,pancake,Mo-Su 09:00-21:30,52.3775885,4.8862637,493987547
Lunch & Dinner,"Nieuwezijds Voorburgwal 119, 1012RH, Amsterdam",,,,,,,52.3743286,4.8915885,495318435
Seafood Grill,Amsterdam,,,,,,,52.3744155,4.8916595,495320684
LM,Amsterdam,,,,,,,52.356045,4.8885043,497165622
ISSHIN,Amsterdam,,https://www.isshin-amsterdam.nl,,,japanese,,52.3570377,4.8886451,497166929
Otaru,"Frans Halsstraat 2, 1072BR, Amsterdam",+31 20 670 8972,https://www.otaru.nl/,info@otaru.nl,,japanese,,52.3584175,4.8888704,497166933
Sama Sebo,"Pieter Cornelisz. Hooftstraat 27, 1071BL, Amsterdam",,https://www.samasebo.nl/,,,indonesian,"Mo-Sa 12:00-15:00, 17:00+; PH off",52.3606764,4.8831414,497169603
Maxies,Amsterdam,,,,,,,52.3600875,4.8797621,497169607
One Dim Sum,"Overtoom 109, Amsterdam",,,,,,,52.3622867,4.8742446,497171384
Hard Rock Cafe,"Max Euweplein 57, 1017MA, Amsterdam",+31 20 888 1358,https://www.hardrockcafe.com/location/amsterdam/,,,american,"Mo-Th 09:00-24:00, Fr,Sa 09:00-01:00",52.3621869,4.8833077,497179291
Hosokawa,Amsterdam,,,,,japanese,,52.3629202,4.8827502,497179306
Wagamama,Amsterdam,+31 20 528 7778,,,,asian,Mo-Su 12:00-22:00,52.3625079,4.8831541,497180853
Maximus Steak House,Amsterdam,+31 20 626 5300,https://maximussteakhouse.com/,info@maximussteakhouse.com,,,Mo-Su 12:00-23:00,52.3622945,4.8834726,497180854
De Balie,Amsterdam,,,,,,"Tu-Su 09:00-23:00, Fr 09:00-01:00, Sa 10:00-01:00",52.36312,4.883101,497182332
Anmol,Amsterdam,,,,,indian,,52.3622297,4.8759194,497194300
de Joffers,"Willemsparkweg 163-H, 1071GZ, Amsterdam",+31 20 673 0360,https://brasseriedejoffers.nl/,info@brasseriedejoffers.nl,@brasseriedejoffers,,Mo-Su 08:00-20:00,52.3558535,4.8710042,500330846
Van Dam,Amsterdam,,,,,,,52.3556729,4.8707638,500331309
Miss Saigon,Amsterdam,,,,,chinese,,52.3659848,4.8728348,504265778
De Ysbreeker,"Weesperzijde 23, 1091EC, Amsterdam",,,,,,"Mo-Th,Su 08:00-01:00; Fr-Sa 08:00-02:00",52.3574883,4.9068874,506494134
Pizza Project,"Wilhelminastraat 153, Amsterdam",,,,,pizza,,52.360962,4.8611643,507092570
Number 1,"Mosplein 1, 1031AA, Amsterdam",,,,,pizza,,52.3910141,4.9107228,507913482
De Haven van Texel,Amsterdam,,,,,,,52.3757889,4.9002791,534025075
Trees,"Zeedijk 14, Amsterdam",,,,,,,52.3758329,4.9004544,534025270
Kam Yin,"Warmoesstraat 6, 1012JD, Amsterdam",+31 20 625 3115,https://www.kamyin.nl/,,,,Mo-Su 12:00-00:00,52.3762358,4.8994544,534025468
Eenvistweevis,Amsterdam,,,,,,,52.3708182,4.9117106,539128135
Ibericus Amsterdam,"Haarlemmerstraat 93, 1013EM, Amsterdam",+31 20 223 6573,https://www.facebook.com/IbericusAmsterdam,,,spanish,Mo-Th 10:00-18:00; Fr-Sa 10:00-19:00; Su 11:00-17:00,52.3805158,4.8908642,558302962
Tom Yum Kung,Amsterdam,,,,,thai,Mo-Su 17:00-22:00,52.3690154,4.9217091,565677299
La Oliva Pintxos y Vinos,"Egelantiersstraat 122-124, 1015PR, Amsterdam",+31 20 320 4316,https://www.laoliva.nl,,@laoliva_amsterdam,spanish,Mo-Su 12:00-22:00,52.3766957,4.8822395,566346908
Two Chefs Bar,"Hugo de Grootplein 7-11, 1052KV, Amsterdam",,https://bar.twochefsbrewing.com/,,,,,52.3743481,4.8730425,568090219
San Lok,Amsterdam,,,,,chinese,,52.3531616,4.826975,571185748
Suvarnadhum,Amsterdam,,,,,thai,,52.3540339,4.8270284,571185753
Porto Marina,Amsterdam,,,,,seafood,,52.3564035,4.8268513,571185758
Abina,"Amsterdamseweg 193, 1182GW, Amstelveen",,https://abina.nl,,,regional,"Mo-Th 06:00-24:00, Fr 06:00-02:00, Sa 08:00-02:00, Su 08:00-24:00",52.3114077,4.8465739,582753958
Pane e Vino,"Amsterdamseweg 172, 1182HK, Amstelveen",,,,,italian,,52.3109584,4.8471397,582753959
Nyonya,"Kloveniersburgwal 38-H, 1012CW, Amsterdam",+31 20 422 2447,https://www.nyonyamalaysiarest.nl,,,malaysian,Th-Su 12:00-21:00,52.371321,4.8986226,582834916
De Jonge Dikkert,"Amsterdamseweg 104-a, 1182HG, Amstelveen",+31 20 643 3333,https://www.jongedikkert.nl,,,french,,52.3081616,4.8472259,592009060
Café Cook,Amsterdam,,,,,,,52.3712507,4.8526367,595264885
Alexandros,"Kostverlorenhof 48, 1183HG, Amstelveen",,https://www.restaurantalexandros.nl,,,greek,,52.3131613,4.8753934,599622997
Yu Woah,"Kostverlorenhof 56, 1183HG, Amstelveen",,http://www.yuwoah-amstelveen.nl,,,chinese,,52.313081,4.8749428,599623014
The Red Sun,Amsterdam,,,,,,,52.3460697,4.8662367,603155604
Quartier Sud,Amsterdam,,,,,,,52.3460319,4.8668971,603155615
Café Luxembourg,"Spui 24, 1012XA, Amsterdam",+31 20 620 6264,https://www.luxembourg.nl,,,dutch,"Su-Th 09:00-24:00, Fr-Sa 09:00-01:00",52.3686609,4.8887034,603364812
Ponte Arcari,Amsterdam,,,,,,,52.3645714,4.8961886,604435945
De Belhamel,Amsterdam,,,,,regional,12:00-16:00; 18:00-22:00,52.3794471,4.8921366,622472303
Neva,Amsterdam,,http://neva.nl,,,,,52.3654316,4.9033085,632110110
Fumi,"Prof. E.M. Meijerslaan 6, 1183AV, Amstelveen",+31 20 3455489,https://fumi-amstelveen.nl/,,,asian,"Tu-Su 12:00-15:00,16:00-22:30",52.3183612,4.8753794,638383976
Golden Garden,"Delflandplein 24-28, 1062HR, Amsterdam",+31 20 617 4342,http://goldengarden.nu/,,,chinese,,52.3498636,4.8397507,667381820
Oleg Pelmeni Bar,"Roetersstraat 10A, 1018WC, Amsterdam",,,,,russian,,52.3636953,4.9105681,679722873
Jen's Bing,"Roetersstraat 4-H, 1018WC, Amsterdam",,https://www.jensbing.nl/,,,asian;bubble_tea,Mo-Su 11:00-20:00,52.3639011,4.9106394,679749862
Aguada,Amsterdam,,,,,Diversen,,52.3637583,4.9105976,679749863
Loetje,"Stationsplein 10, 1012AB, Amsterdam",+31 20 623 3777,https://www.loetje.nl/locaties/amsterdam-centraal/,,@loetje_restaurant,steak_house,"Mo-Th,Su 10:00-22:00; Fr-Sa 10:00-22:30",52.377503,4.9004373,704461695
Brasserie 't Siertje,"Sierplein 2, 1065LM, Amsterdam",+31 20 617 6271,https://brasserietsiertje.nl/,,,,Mo 09:00-18:00; Tu 09:00-18:00; We 09:00-18:00; Th 09:00-18:00; Fr 09:00-18:00; Sa 09:00-17:00; Su off,52.355879,4.8264837,706792079
Boulevard Cafe,Amsterdam,,,,,international,"Tu-Th 12:00-24:00, Fr 12:00-01:00, Sa 14:00-01:00, Su 14:00-23:00",52.3686365,4.9344655,732392347
Cai & Cai,"Borneolaan 515, 1019KP, Amsterdam",+31 20 419 7710,https://caicairestaurant.nl,caicaibv2022@gmail.com,,asian;fusion;sushi;buffet,16:00-22:00; Tu off,52.3713201,4.9401995,734165823
Piccolino,"Lange Leidsedwarsstraat 63, 1017NH, Amsterdam",,https://www.ristorantepiccolino.nl,,,italian,12:00-23:00,52.3636053,4.8852731,737187579
Royal Fook Long,"Hageland 61-69, 1066RD, Amsterdam",+31 20 669 6787,https://royalfooklong.com,,,chinese;sushi,Mo-Su 16:00-22:00,52.3453224,4.8100429,746910425
63 Degrees Foodbar,Amsterdam,,,,,,,52.3527533,4.8479962,761236360
Glatt Kosjer,"Amstelveenseweg 224, 1075XT, Amsterdam",,,,,jewish,,52.3510433,4.8565512,768575159
Meerzicht,"Nieuwemeerdijk 326, 1171NT, Badhoevedorp",,https://www.restaurantmeerzicht.nl/,,,,,52.3261001,4.8172918,782253208
O-Cha,"Binnen Bantammerstraat 1, Amsterdam",+31 20 625 9958,,,,thai,Tu-Su 16:00-22:00,52.3740057,4.901904,806014558
lePita,"Kastelenstraat 265, 1082EG, Amsterdam",+31 20 786 8609,http://www.lepita.nl/lepita/menu2024.jpg,,,arab;deli;mediterranean,Su-Th 11:00-21:00; Fr 11:00-16:00,52.3257181,4.8710603,850735390
Momo,"Hobbemastraat 1, 1071XZ, Amsterdam",+31 20 6717474,https://www.momo-amsterdam.com,,,,,52.3615027,4.8825862,863195537
Cuisine of India,"Binnen Bantammerstraat 9, Amsterdam",,,,,indian,,52.3738722,4.9022134,866385078
Italia Oggi,"Binnen Bantammerstraat 11-H, 1011CH, Amsterdam",+31 6 2180 6400,https://www.italiaoggi.nl,,@explore/locations/1308146/netherlands/amsterdam-netherlands/italia-oggi,italian,Mo-Su 17:00-23:00,52.3738399,4.9022578,866385091
AM Sushi,Amsterdam,,,,,sushi,,52.3497742,4.9035997,916341139
Faa Thai,"Marathonweg 10, 1076TE, Amsterdam",,http://www.faathai.nl,,,thai,,52.3482413,4.8609154,921781904
Tokyo garden,"Burgemeester Rendorpstraat 17, 1064EL, Amsterdam",,https://tokyogarden.nl/,,,japanese,,52.3741582,4.8265868,957593170
Nossa Senhora,"Zeedijk 28, 1012AZ, Amsterdam",,,,,,,52.3754918,4.9008899,958673979
Nel,"Amstelveld 12, 1017JD, Amsterdam",+31 20 626 1199,https://brasserienel.nl,,@brasserienel,,"Su-Tu 10:30-18:00, We-Sa 10:30-01:00",52.3621972,4.8966302,965293083
De Deli,"Plantage Kerklaan 41, Amsterdam",+31 20 354 2669,https://borrl.kitchen/,info@borrl.kitchen,,,Mo-Su 10:00-18:00,52.3670112,4.9120064,976615026
New Dutch,"Prinsengracht 62, 1015DX, Amsterdam",,,,,,We-Mo 09:00-15:00,52.3778982,4.8855738,1020237619
Lalla Rookh,"Wijttenbachstraat 290, 1093JK, Amsterdam",,,,,surinamese,,52.360674,4.9285149,1043896615
R21,"Peperstraat 23, 1011TJ, Amsterdam",,,,,,,52.3715795,4.9077158,1055573894
Babel,"Oosterdokskade 143, Amsterdam",,https://babel.amsterdam/,,,,Mo-Fr 10:00-22:00; Sa-Su 10:00-20:00,52.3758693,4.9081512,1074370472
Plancius,"Plantage Kerklaan 61C, 1018CX, Amsterdam",+31 20 223 6946,https://www.restaurantplancius.nl/,,,international,,52.3678354,4.9127949,1083536032
Bloem,"Entrepotdok 36, 1018AD, Amsterdam",+31 20 3300929,http://www.bloem36.nl,,,,Tu-Su 16:00-23:00,52.3688499,4.9142406,1083536034
van Kerkwijk,"Nes 41, 1012KC, Amsterdam",,https://www.caferestaurantvankerkwijk.nl,,,,,52.3715399,4.8937076,1083659913
Akitsu,"Rozengracht 228-230, 1016SZ, Amsterdam",+31 20 625 3254,https://www.akitsu-amsterdam.com/,,,japanese,We-Su 18:00-11:30,52.3722193,4.8752152,1089777272
Du Monde Bar&Kitchen,"Dorpsstraat 104, Amstelveen",+31 20 345 3366,https://www.grandcafeoudedorp.nl,,,french,,52.300852,4.846216,1100008576
d'Vijff Vlieghen,"Spuistraat 294-302, 1012VX, Amsterdam",,http://www.d-vijffvlieghen.com,,,dutch,,52.369578,4.8886397,1103394120
Oma,Amsterdam,,,,,,,52.3630587,4.8851836,1144504757
1900,"Hogeweg 48, 1098CE, Amsterdam",+31 20 362 6329,https://barrestaurant1900.nl/,,@barrestaurant1900,,"Tu-Th,Su 11:00-23:00; Fr-Sa 11:00-24:00",52.3548265,4.9331684,1165900114
De Pizzabakkers,"Copernicusstraat 49, 1098JE, Amsterdam",+31 85 438 5999,https://www.depizzabakkers.nl/vestigingen/amsterdam-copernicusstraat/,,,pizza,Mo-Su 16:00-21:00,52.3553428,4.9377539,1167909861
Maria,"Zeedijk 55, 1012AS, Amsterdam",,,,,,,52.3750398,4.9011141,1174575275
Little Thai Prince,"Zeedijk 33, Amsterdam",,,,,thai,,52.3755716,4.9010328,1174575278
Brasserie Flo,"Amstelstraat 9, 1017DA, Amsterdam",+31 20 890 4757,https://www.floamsterdam.nl,,,french,,52.3663295,4.8982785,1221258139
Krua Thai,Amsterdam,,https://kruathai.nl/,,,thai,,52.3681585,4.8980317,1221312739
Kosmos,"De Wittenkade 192, 1051AP, Amsterdam",+31 20 400 3341,https://www.kosmosamsterdam.nl/,,,,Wed-Thu 12:00-00:00; Fr-Sat 12:00-01:00; Su 12:00-22:00,52.3812414,4.8734487,1222424006
Toscana,"Haarlemmerdijk 176, 1013HL, Amsterdam",+31 20 334 6293,http://www.restaurant-toscana.nl/,,,pizza,Mo-Th 16:00-23:00; Fr-Su 12:00-23:00,52.3841202,4.8848361,1222424026
a Volo!,"Haarlemmerdijk 188-H, 1013JK, Amsterdam",+31 20 337 7431,https://a-volo.nl/,,,italian,We-Mo 12:00-18:00,52.3842507,4.8845468,1222424034
Café Nassau,"De Wittenkade 105A, 1052AG, Amsterdam",+31 20 684 3562,https://cafenassau.com/,info@cafenassau.com,@cafenassau,,"Mo 16:00-22:00; We,Th 16:00-23:00; Fr,Sa 12:00-23:00; Su 12:00-23:00",52.3829251,4.8771881,1222424093
Namaskar,"Haarlemmerstraat 47, Amsterdam",,http://www.namaskaramsterdam.nl/,,,indian,,52.3796886,4.8931984,1223236794
Rangoli,"Haarlemmerstraat 11, Amsterdam",,http://www.rangoli.nl/,,,indian,,52.3794045,4.8937259,1223236797
Il Tramezzino,"Haarlemmerstraat 79, Amsterdam",,https://iltramezzinoamsterdam.nl/,,@iltramezzinoamsterdam,italian,"Mo,We-Su 09:00-18:00",52.3803114,4.8914837,1223236843
Bistrot Neuf,"Haarlemmerstraat 9, 1013EH, Amsterdam",+31 20 400 3210,https://www.bistrotneuf.nl/,,,french,Mo-Th 16:00-24:00; Fr-Su 12:00-24:00,52.3793782,4.8937715,1223236858
San Pedro,"Haarlemmerstraat 83, Amsterdam",,https://www.sanpedro.nl/,,,steak,,52.380348,4.8913443,1223236878
Salsa Shop,"Haarlemmerstraat 97, 1013EM, Amsterdam",,,,,mexican,,52.3805781,4.8907284,1223236894
Soup En Zo,"Haarlemmerstraat 87, Amsterdam",,https://soupenzo.nl,,@soupenzo,soup;salad,Mo-Fr 11:00-20:00; Sa 11:00-19:00; Su 12:00-19:00,52.3803846,4.891205,1223236895
Kruabuppha,"Van Woustraat 241, 1074AS, Amsterdam",+31 20 670 2103,https://krua-buppha.nl,info@krua-buppha.nl,,thai,"Mo,We-Su 17:00-21:30; Tu off; We[1,2] off",52.3495403,4.904308,1245716249
Pica Pica,"Camperstraat 48-50, 1091AH, Amsterdam",,http://www.restaurantpicapica.nl,,,spanish,Mo-Th 09:00-15:00; Fr-Su 09:00-18:00,52.3578023,4.9134058,1261566508
Hearth,"Camperstraat 24-26, 1091AG, Amsterdam",+31 6 19284170,https://hearthamsterdam.nl/,hearthamsterdam@gmail.com,,,,52.3584584,4.9129258,1262086558
Daalder,"Postjesweg 1, 1057DT, Amsterdam",+31 20 624 8864,https://daalderamsterdam.nl/,reserverendaalder@daalderculinair.com,,,,52.3641089,4.8590875,1275764717
Merkelbach,"Middenweg 72, 1097BS, Amsterdam",+31 20 665 0880,https://restaurantmerkelbach.nl/,,@restaurant_merkelbach,,,52.3512241,4.9334141,1299980492
Wonny's Eethuis,"Maritzstraat 28, 1091KW, Amsterdam",,,,,,,52.3547005,4.9197846,1300002688
Warung Domburg,"Vrolikstraat 323, 1091VE, Amsterdam",+31 20 665 6458,,,@warungdomburg,asian,"Su-Th 21:00-01:00, Fr,Sa 21:00-03:00",52.3564131,4.9183693,1300002722
Sham,"Borneosteiger 1, Amsterdam",+31 20 363 9036,http://www.restaurantsham.nl/oost/,oost@restaurantsham.nl,,syrian,Mo-Su 12:00-22:00,52.3697596,4.9368846,1306195371
Royal San Kong,"Dorpsstraat 57, Amstelveen",+31 20 647 7902,https://www.royalsankong.nl,,,chinese,,52.3018289,4.8462001,1308856137
Saravanaa Bhavan,"Stadhouderskade 123-124, 1074AV, Amsterdam",+31 20 786 4880,https://saravanaa-bhavan.nl/,,,indian,Mo-Tu 18:00-22:00; We-Fr 11:00-22:00; Sa-Su 10:00-22:00,52.3577036,4.8995158,1310554569
Ristorante Isola Bella,"Thorbeckeplein 7-9, 1017CS, Amsterdam",+31 20 626 9582,https://restaurantisolabella.nl/,,,italian,,52.3653391,4.8961475,1310911717
Stoop & Stoop Eetcafé,Amsterdam,,https://www.stoopenstoop.nl/,,,,,52.3642795,4.8838952,1310911734
Pancake Corner Restaurant,Amsterdam,,,,,pancake,,52.3640344,4.88345,1310911753
Palladium Restaurant Club,"Kleine-Gartmanplantsoen 7, 1017RP, Amsterdam",+31 20 620 5536,https://www.palladiumamsterdam.nl/,,@palladiumamsterdam,,Mo-Th 10:00-01:00; Fr-Sa 10:00-03:00,52.3635772,4.8835286,1310911760
Eetcafé 't Gasthuys,"Grimburgwal 7-H, 1012GA, Amsterdam",,https://www.gasthuys.nl/,,,,,52.3693922,4.8935292,1310974758
Rancho Steakhouse,Amsterdam,,,,,,,52.3688767,4.8911573,1310974776
Flore,"Nieuwe Doelenstraat 2-14, 1012CP, Amsterdam",+31 20 531 1619,https://restaurantflore.com,,@restaurant.flore,,"We-Th 18:30-22:00; Fr-Sa 12:00-16:00, 18:30-22:00",52.3674539,4.8943025,1310974815
De Duvel,"Eerste Van der Helststraat 59-H, 1073AD, Amsterdam",+31 20 6757517,https://www.deduvel.nl,info@deduvel.nl,,,,52.3547999,4.8936321,1315135104
Moeders,"Rozengracht 251, 1016SX, Amsterdam",+31 20 626 7957,https://www.moeders.com,info@moeders.com,,regional,Mo-Fr 17:00-00:00; Sa-Su 12:00-00:00,52.3718427,4.8749777,1328355092
Blue Dragon,"Marie Heinekenplein 4, 1072MH, Amsterdam",,,,,sushi,,52.3574253,4.8911961,1337621655
Radijs,"Jan Evertsenstraat 41hs, 1057BM, Amsterdam",+31 20 751 3232,https://radijs-amsterdam.nl,ikwil@radijs-amsterdam.nl,,,Su-Th 12:00-01:00; Fr-Sa 12:00-02:00,52.3710583,4.8571118,1338094260
Ron Gastrobar,"Sophialaan 55, 1075BP, Amsterdam",+31 20 496 1943,https://rongastrobar.nl/restaurants/ron-gastrobar,info@rongastrobar.nl,@rongastrobar,international,Mo-Su 12:00-22:30,52.3521264,4.8567933,1339610641
Casa Peru,"Leidsegracht 68, 1016CP, Amsterdam",,https://www.casaperu.nl,,,peruvian,17:30-24:00,52.3664389,4.8829961,1340087183
Kagetsu,"Hartenstraat 17, Amsterdam",,https://www.kagetsu.nl,,,japanese,,52.3722455,4.8860197,1348523677
De Italiaan,"Bosboom Toussaintstraat 29, 1054AN, Amsterdam",,https://www.deitaliaan.com/,,,italian,Mo-Fr 17:15-24:00; Sa-Su 12:30-24:00,52.3654913,4.8763748,1349087394
La Bruschetta,"Jean Desmetstraat 121, 1087DH, Amsterdam",+31 20 226 8308,https://bruschetta.amsterdam,,,italian,Mo-Su 16:00-22:00,52.3593615,4.9949425,1350283575
Zomerlust,"Burgemeester De Vlugtlaan 156, 1063BS, Amsterdam",,,,,international,,52.381289,4.8239366,1380924446
Hannekes Boom,"Dijksgracht 4, 1019BS, Amsterdam",+31 20 419 9820,https://hannekesboom.nl/,,,international,"Mo-Th,Su 11:00-01:00; Fr-Sa 11:00-03:00",52.3762931,4.9115789,1386079220
Beyoğlu,"Eerste Oosterparkstraat 251B, 1091HA, Amsterdam",+31 20 786 1148,https://beyoglurestaurant.nl/,info@beyoglurestaurant.nl,@beyogluamsterdam,mediterranean;turkish,Mo-Su 14:00-23:00,52.3572653,4.913725,1419479007
Marhaba,"Eerste Oosterparkstraat 123BG, 1091GX, Amsterdam",+31 20 468 8330,https://marhaba-amsterdam.nl/,,,moroccan,,52.3567824,4.9118375,1419479008
Landmarkt Restaurant,Amsterdam,+31 20 490 4366,https://www.landmarkt.nl,,,,Mo-Tu 10:00-17:00; We-Su 10:00-22:00,52.3809218,4.9686461,1421161767
de Oesterbar,Amsterdam,,https://www.oesterbar.nl/,,,fish,,52.3647013,4.8827741,1427417020
Zenzero Pizzeria,"Gerard Callenburgstraat 1, 1055TV, Amsterdam",+393923732223,https://zenzeropizzeria.com/,Zenzeropizzeriaamsterdam@gmail.com,,italian;pizza,,52.377487,4.8595561,1432237080
Sortie,"Jan de Jonghkade 82, 1063MJ, Amsterdam",,https://sortierestaurant.nl/,,,turkish,09:00 - 01:00,52.3791955,4.8227756,1439522175
Antonio's Restaurante,Amsterdam,,,,,italian,,52.3636482,4.88489,1444572916
Bojo,"Lange Leidsedwarsstraat 49, 1017NG, Amsterdam",,https://www.bojo.nl/,,,indonesian,Mo-Su 16:00-24:00,52.3639322,4.8847921,1444572917
Chicano's,Amsterdam,,,,,mexican,,52.363749,4.8847449,1444572921
De blauwe Hollander,Amsterdam,,https://www.deblauwehollander.nl,,,regional,,52.3635484,4.8847235,1444572927
El Rancho,Amsterdam,,,,,argentinian,,52.3638816,4.8845402,1444572935
Greek,Amsterdam,,,,,greek,,52.3643571,4.8841943,1444572937
Mythos,Amsterdam,,https://mythosgreek.nl/,,,argentinian,We-Su 15:30-23:30; Mo 15:30-23:00,52.3642942,4.8842525,1444572950
Miduo Chinese Cuisine,Amsterdam,,,,,,,52.3642096,4.8843814,1444572951
Mykonos,Amsterdam,,,,,greek,,52.3640102,4.8846815,1444572955
O' Sole Mio,"Lange Leidsedwarsstraat 19, 1017NE, Amsterdam",+31 20 623 7360,https://www.osolemio.nl/,info@osolemio.nl,,italian,Mo-Fr 15:00 - 23:00; Sa-Su 13:00 - 23:00,52.3644198,4.8841433,1444572958
Peppino,Amsterdam,,https://www.ristorantepeppino.nl,,,italian,,52.3634912,4.8846075,1444572961
Pisa,Amsterdam,,,,,italian,,52.3644852,4.8839811,1444572967
Royal Thai,"Lange Leidsedwarsstraat 94, 1017NM, Amsterdam",+31 20 626 7261,https://www.royal-thai.nl/,info@royal-thai.nl,,thai;seafood,"Mo-Fr 15:00-24:00; Sa,Su 12:00-24:00",52.3641259,4.8842311,1444572969
Zorba de Griek,Amsterdam,,,,,greek,,52.3637257,4.8851083,1444572982
Do Brasil,"Lange Leidsedwarsstraat 86, 1017NM, Amsterdam",,https://www.leidseplein.amsterdam/restaurant/restaurant-do-brasil,,,brazilian,,52.3641938,4.8840332,1444572983
Utrechtsedwarstafel,"Utrechtsedwarsstraat 107-109, 1017WD, Amsterdam",+31 6 2044 7559,https://www.utrechtsedwarstafel.com/,,@deutrechtsedwarstafel,,,52.3618245,4.9004947,1453672123
Ceppi’s,Amsterdam,,https://www.ceppis.com/,,@ceppis.trattoria,regional,,52.3628586,4.8850519,1477529611
El Patio Granada,Amsterdam,,https://www.granadarestaurant.nl,,,,,52.3635176,4.8854166,1477529612
Mayur,"Korte Leidsedwarsstraat 203, 1017RB, Amsterdam",+31 20 623 2142,https://www.mayur.nl,,,indian,,52.3623426,4.8861759,1477529632
In de Buurt,Amsterdam,+31 20 616 4787,,,,,,52.3630261,4.8845121,1477529634
Porto Carrara,Amsterdam,,https://www.portocarrara.nl/,,,pizza,,52.3634013,4.8852647,1477529651
Sherpa,"Korte Leidsedwarsstraat 58, 1017RD, Amsterdam",,https://www.sherparestaurant.nl,,@sherparestaurant,nepalese;tibetan;indian,Mo-Su 16:00-23:00,52.3631367,4.8847519,1477529657
Taste of Culture,"Korte Leidsedwarsstraat 139-141, 1017PZ, Amsterdam",+31 20 427 1136,http://tasteofculture.nl,,,chinese,Su-Th 17:30-01:00; Fr-Sa 17:30-02:00,52.3631049,4.8851368,1477529671
El Vino,"Lange Leidsedwarsstraat 54, Amsterdam",,,,,mexican,,52.3639005,4.8848889,1483619826
Bombay inn,Amsterdam,,,,,indian,,52.3651399,4.8826496,1486109761
Granada,Amsterdam,,https://www.granadarestaurant.nl,,,,,52.3636437,4.8853422,1486109769
Japan Inn,Amsterdam,,https://www.japaninn.nl,,,japanese,,52.3638952,4.8854331,1486109772
Los Argentinos,Amsterdam,,http://www.losargentinos.nl,,,,,52.3637143,4.8854787,1486109775
Moshi Moshi,Amsterdam,,,,,japanese,,52.36368,4.8854104,1486109779
The Guru of India,Amsterdam,,,,,indian,,52.3650182,4.8828626,1486109783
Phutakun,"Reguliersdwarsstraat 11, 1017BJ, Amsterdam",+31 20 428 1887,https://phutakun.nl,,,thai,"Su, Mo, We-Fr 15:00-22:30, Sa 14:00-22:30",52.366767,4.8896227,1492346704
Rossini,"Reguliersdwarsstraat 5, 1017BJ, Amsterdam",,https://rossini-amsterdam.nl/,,,italian,,52.3668154,4.8894711,1492346705
Shisho,"Rembrandtplein 47, 1017CT, Amsterdam",,https://shiso.nl/,,,sushi,Mo-Su 13:00-22:00; Th-Su 22:00-22:30,52.366149,4.897694,1504115535
Global Streetfood,"Surinamestraat 9-H, 1058GJ, Amsterdam",+31 20 7860711,,,,,,52.357975,4.8539329,1538261150
Sranang Makmur,"Wijttenbachstraat 10, 1093HR, Amsterdam",,,,,asian,,52.360026,4.9259729,1550824348
Master Fisher,"Sumatrastraat 98, 1094NJ, Amsterdam",,,,,seafood,Mo-Su 10:00-20:30,52.3615654,4.9360954,1550842307
De Kompaszaal,"KNSM-laan 311, 1019LE, Amsterdam",,https://www.kompaszaal.nl/,,,international,,52.377159,4.9400559,1556462429
De Nieuwe KHL,Amsterdam,,https://denieuwekhl.nl/,,,international,Mo-Su 15:00-00:00,52.3740065,4.9363092,1556479637
Het Pompstation,"Zeeburgerdijk 52, 1094AE, Amsterdam",+31 20 692 2888,https://pompstation.nu,info@pompstation.nu,,,Tu-Sa 18:00-22:30,52.3659064,4.9334946,1556484511
VRR,"Conradstraat 471, 1018NE, Amsterdam",+31 6 11122373,https://vrr.rest,,,,,52.3719675,4.9313951,1556487107
Les Zazous,"Piraeusplein 59, 1019NM, Amsterdam",+31 20 854 3361,https://leszazous.nl/,,,french,"Mo,We-Su 12:00-15:00,17:30-21:00",52.3765161,4.9415271,1566951808
Meram,"Meer en Vaart 175, 1068LA, Amsterdam",+31 20 410 1452,https://meram.nl/amsterdam-osdorp,,,turkish,,52.3602051,4.8081004,1578160163
De Reiger,Amsterdam,,,,,international,,52.3757295,4.8825261,1578160226
Mister Chen Cha House,Amsterdam,,,,,chinese,,52.359298,4.9254798,1578734064
Poké Perfect,Amsterdam,,,,,,Mo-Su 11:30-21:00,52.3595338,4.9253242,1578739479
Westergasterras,"Klönneplein 4-6, Amsterdam",+31 20 684 8496,https://www.westergasterras.nl/,,@westergasterras,,,52.3871553,4.8697708,1585856787
Caramba!,Amsterdam,,,,,mexican,Su-Fr 17:30-22:00+; Sa 11:00-22:00+,52.3798108,4.8808038,1588286502
Long Pura,Amsterdam,,,,,indonesian,,52.3736441,4.8811373,1588328789
Chow,Amsterdam,,,,,asian,,52.373391,4.8793053,1590738324
Wilde Zwijnen,Amsterdam,,,,,regional,,52.3635789,4.9403914,1595364823
La Due Sicilie,"President Steynstraat 7 HS, 1091NB, Amsterdam",,,,,,,52.3512642,4.9163435,1595389728
Pancake Corner,"Kleine-Gartmanplantsoen 51, 1017RP, Amsterdam",+31 20 627 6303,https://pancake-corner.nl,,,,Mo-Su 09:00-22:00,52.3628007,4.8838974,1595594894
Azur Bleu,Amsterdam,,,,,tapas,,52.3742612,4.8727615,1598670231
Orontes West,"Hugo de Grootplein 8-H, Amsterdam",,,,,mediterranean,,52.3748,4.8733,1598670234
Marits,"Andreas Bonnstraat 34H, 1091BA, Amsterdam",+31 20 776 3864,https://www.maritshuiskamerrestaurant.nl,info@maritshuiskamerrestaurant.nl,,,,52.3593021,4.9137126,1619441662
Queen of Sheba,Amsterdam,,,,,,Mo-Su 17:00-23:00,52.3836547,4.8789597,1628629821
MKZ,"Eerste Schinkelstraat 16, 1075TX, Amsterdam",+31 20 679 0712,https://binnenpret.org/mkz/,mkz@binnenpret.org,,,"Tu,Th-Sa 19:00+",52.3539315,4.8542756,1641002657
Wagamama,"Zuidplein 12, 1077XV, Amsterdam",+31 20 620 3032,https://www.wagamama.nl/restaurants/zuidplein,,,asian,Mo-Fr 11:30-17:00; Sa-Su 13:00-17:00,52.339909,4.872697,1657724267
Pomodoro,"Jan Pieter Heijestraat 128, 1054MH, Amsterdam",,,,,,,52.362435,4.8640063,1686808195
Cham So Good,"Overtoom 464A, 1054JX, Amsterdam",+31 6 41389422,https://chamsogood.nl/,,,korean,Mo 16:00-19:30; Tu-Sa 12:00-19:30; Su off,52.3595183,4.8614149,1688832074
De Zingende Zwaan,"Rhijnvis Feithstraat 43, Amsterdam",,,,,,Mo-Su 17:00-24:00,52.3597871,4.8599718,1688834785
Lalibela,"Eerste Helmersstraat 249-H, 1054DX, Amsterdam",,https://www.lalibela.nl/,,,ethiopian,,52.3609593,4.865533,1689127884
Getto,"Warmoesstraat 51, 1012HW, Amsterdam",+31 20 421 5151,http://www.getto.nl,,,burger,,52.375358,4.898286,1696397267
Kaagman & Kortekaas,"Sint Nicolaasstraat 43, 1012NJ, Amsterdam",+31 20 233 6544,https://www.kaagmanenkortekaas.nl,,,french,"Tu-Fr 18:00-01:00, Sa12:00-01:00, Su18:00-01:00",52.3748089,4.8924356,1699862313
Atrium,Amsterdam,,,,,,,52.369028,4.8955526,1701389012
De Smoeshaan,Amsterdam,,,,,international,,52.3640307,4.8805712,1704746489
Roberto's Restaurant,"Apollolaan 138, 1077BG, Amsterdam",+31 20 710 6025,http://www3.hilton.com/en/hotels/netherlands/hilton-amsterdam-AMSHITW/dining/index.html?WT.mc_id=zELWAKN0EMEA1HI2DMH3LocalSearch4DGGenericx6AMSHITW,robertos.amsterdam@hilton.com,,italian,Mo-Su 07:00-22:30,52.3514585,4.8715594,1708258875
Kersentuin,Amsterdam,,,,,,,52.3512586,4.8743677,1708258878
Café Loetje,"Johannes Vermeerstraat 52-H, 1071DT, Amsterdam",+31 20 662 8173,https://www.loetje.nl/locaties/amsterdam-cafe/,,,steak_house,Mo-Su 11:30-22:30,52.3543672,4.8842366,1712460739
Toko Sinar Mas,"Hoofddorpplein 9, 1059CV, Amsterdam",+31 20 669 1857,https://www.sinarmas.nl,sales@sinarmas.nl,,asian,"Mo-Fr 12:00-19:45, Sa 10:00-17:30",52.350895,4.8500652,1712603322
Bolenius,"George Gershwinlaan 30, 1082MT, Amsterdam",,https://www.bolenius-restaurant.nl/,,,,,52.3360706,4.8737039,1718653956
New King,"Zeedijk 115-117, 1012AV, Amsterdam",+31 20 625 2180,,,,chinese,,52.3736127,4.9003001,1720286925
Blin Queen,"Amstel 102, 1017AD, Amsterdam",,https://www.blinqueen.com,,@blinqueen.amsterdam,breakfast;cake;coffee_shop;crepe;diner;pancake,Mo-Th 09:00-21:00; Fr 09:00-22:00; Sa-Su 09:00-18:00,52.366956,4.8968557,1724319376
Middl Eat,"Reguliersdwarsstraat 21, 1017BJ, Amsterdam",+31 20 845 8144,https://www.middleat-amsterdam.nl,,@middl.eat,mediterranean,Mo-Fr 09:00-01:00; Sa-Su 09:00-03:00,52.3666351,4.8899888,1741827384
La Casa di Madonna,"Reguliersdwarsstraat 31, 1017BJ, Amsterdam",,https://casadimadonna.nl/,,,italian,,52.3665466,4.8903128,1741835157
Gebr. Hartering,"Peperstraat 10-huis, 1011TL, Amsterdam",+31 20 421 0699,https://www.gebr-hartering.nl,,@gebrhartering,meat,Mo-Su 18:00-22:00,52.3716443,4.9074757,1749038791
The Red Wine District,"Sint Jacobsstraat 8, 1012NC, Amsterdam",,,,,,,52.3765273,4.8956641,1757236729
Tjing Tjing,Amsterdam,,,,,,,52.3505332,4.889167,1767426728
Shoarma Mesut 2,Amsterdam,,,,,,,52.3728915,4.8780769,1772991831
Toscanini Deli,"Lindengracht 75, 1015KD, Amsterdam",,https://restauranttoscanini.nl/,,,italian,"Mo-Th 18:00-23:00; Su off; Fr,Sa 12:00-14:30,18:00-24:00",52.380166,4.8852817,1783971866
Hakata Senpachi,"Wielingenstraat 16, 1078KK, Amsterdam",,https://www.hakatasenpachi.com,,@hakatasenpachi,japanese,Mo off; Tu-Su 17:00-22:00,52.3444664,4.8893218,1793882002
Il Pecorino,Amsterdam,,https://www.ilpecorino.nl,,,italian,,52.386837,4.908566,1799267537
Takumi Ramen,"Kinkerstraat 140, 1053EG, Amsterdam",+31 20 3032868,https://takumiramennoodles.com/nl/amsterdam-dehallen/,kinkerstraat@takumiramen.nl,@takumiramenamsterdam,asian;japanese;ramen,Mo-Sa 12:00-21:30; Su 12:00-21:00,52.3665692,4.8692063,1815032695
Srikandi,"Stadhouderskade 31, 1071ZD, Amsterdam",,,,,indonesian,,52.3614794,4.8836467,1827993011
La Cantina,"Gravenstraat 20, 1012NM, Amsterdam",+31 20 786 7211,https://lacantinaamsterdam.nl/,info@lanactinaamsterdam.nl,,italian,,52.3742929,4.8921822,1886938076
De Struisvogel,"Keizersgracht 312, 1016EX, Amsterdam",+31 20 423 3817,http://www.restaurantdestruisvogel.nl/,info@restaurantdestruisvogel.nl,,,,52.3704351,4.8842823,1886938094
't Zwaantje,"Berenstraat 12, 1016GH, Amsterdam",+31 20 623 2373,http://zwaantje-restaurant.nl/,info@zwaantje-restaurant.nl,,,Mo-Su 16:30-23:00,52.3704557,4.8838082,1886938104
Lloyd Hotel,Amsterdam,,,,,,,52.3741514,4.9347391,1890385348
Al Argentino,"Zeedijk 29A, 1012AP, Amsterdam",+31 20 638 9340,https://www.alargentino.nl/,,,steak,Mo-Su 12:00-23:00,52.3756793,4.9009356,1904756910
Azzurro,"Zeedijk 46, 1012BA, Amsterdam",,,,,italian,,52.3750547,4.9008836,1904756921
Dum Dum Palace,"Zeedijk 37, 1012AR, Amsterdam",,,,,chinese,,52.375497,4.9011058,1904756954
Wau,Amsterdam,,,,,malaysian,We-Mo 12:00-22:00,52.3755423,4.9010587,1904756985
Kyo,"Koningsstraat 29, 1011ET, Amsterdam",+31 20 354 1219,https://restaurantkyo.nl/,info@restaurantkyo.nl,,japanese,We-Su,52.3723595,4.9020474,1908229548
Symphony's,"George Gershwinlaan 22-28, 1082MT, Amsterdam",,https://www.symphonys.nl,,,international,,52.3361779,4.8742579,1927265371
Tanuki,"Pieter Lastmanweg 9, Amstelveen",,https://www.restaurant-tanuki.nl,,,japanese,,52.3026631,4.8624811,1927290379
Ogìrì,Amsterdam,,,,,african,,52.322785,4.9729363,1965702599
Titus Parrilla,"Rembrandtplein 7, 1017CT, Amsterdam",,,Haagen-Dazs.Rembrandtplein@genmills.com,,argentinian,,52.366428,4.896148,1984268522
Mi-Gudu,"Wijttenbachstraat 390, 1093JK, Amsterdam",,,,,,,52.3610354,4.9300561,2013949592
Sranang Makmur,"Wijttenbachstraat 14, Amsterdam",,,,,asian,,52.3600469,4.9260867,2013949595
ctaste,"Amsteldijk 55, 1074HX, Amsterdam",+31 20 675 2831,https://ctaste.nl/,service@ctaste.nl,,regional,We-Sa 16:30+; Su 11:00+,52.3541976,4.9062854,2042209982
Pazzi,"Steve Bikoplein 12, 1092GN, Amsterdam",+31 20 705 1008,https://www.pazziamsterdam.nl/,andrea@pazziamsterdam.nl,@pazziamsterdam,italian,Mo-Su 17:00-22:00,52.3552513,4.9228914,2052015527
De Luwte,"Leliegracht 26-28, Amsterdam",,http://restaurantdeluwte.nl,,,international,,52.3752896,4.88688,2061794034
Sous Bar Bistro,"Wolvenstraat 16, 1016EP, Amsterdam",+31 20 639 0351,https://sousamsterdam.nl,info@sousamsterdam.nl,,international,24/7,52.370378,4.8858097,2086254284
East57,"Eerste Ringdijkstraat 4, 1097BC, Amsterdam",,https://www.east57.nl,,,international,Mo-Sa 08:00-23:00; Su 08:00-15:30,52.350072,4.9183799,2108789147
Piazzeta Romana,"Korte Leidsedwarsstraat 69, 1017PW, Amsterdam",,,,,,Mo-Th 11:30-23:00; Fr-Su 11:30-23:30,52.3641394,4.8836566,2138577016
Sumo,"Korte Leidsedwarsstraat 51, 1017PW, Amsterdam",,https://www.restaurantsumo.com/,,,japanese,,52.3647599,4.882715,2138577029
Rainarai,"Polonceau-kade 40, 1014DA, Amsterdam",,https://rainarai.nl/westergasfabriek/restaurant,,,,Mo-Su 12:00-22:00,52.3857011,4.8656267,2161765502
Kaasbar,"Ferdinand Bolstraat 10, Amsterdam",,https://kaasbar.amsterdam/,,,,Mo-Th 17:00-23:00; Fr 15:00-01:00; Sa-Su 12:30-01:00,52.3572817,4.8905157,2165936474
Yuan's Hot Pot,Amsterdam,,https://yuanhotpot.com,,,hotpot,,52.3570167,4.8905362,2165936476
Taj,Amsterdam,+31 20 6797297,https://taj-indian-restaurant.nl/,,@tajindianrestaurantamsterdam,indian,Mo-Su 16:00-23:00,52.3574228,4.891031,2165936477
Linguini Trattoria,"Eerste Jacob van Campenstraat 41, 1072BD, Amsterdam",,https://www.linguini.nl/,,,italian,,52.3575174,4.8896736,2165936478
Shanghai Soup Dumplings,Amsterdam,,,,,asian,,52.3572111,4.8905496,2165936479
Frens Haringhandel,Amsterdam,,,,,seafood,Mo-Su 11:00-17:00,52.3672889,4.889437,2179747557
Moak Pancakes,"Ferdinand Bolstraat 11-H, 1072LA, Amsterdam",,https://www.moakpancakes.nl/,,,pancake,,52.3565078,4.8907469,2186372449
Chez Nina,"Van Limburg Stirumplein 10A, 1051BE, Amsterdam",+31 6 28836136,https://www.cheznina.nl,,,mediterranean,Tu-Th 17:30-24:00; Fr-Su 12:00-24:00,52.3845831,4.8748401,2189998308
Buiten Amsterdam,"Th. J. Lammerslaan 3, 1064DH, Amsterdam",+31 20 341 34 37,https://www.buiten-amsterdam.nl,,,international,Tu-Su 11:00-23:30,52.3714116,4.8212599,2192119057
Pie Nong Thai,"Nassaukade 50A, 1052CN, Amsterdam",+31 6 44105074,https://bestelthaiseten.nl,,,thai,Mo-Su 16:00-21:30,52.3813066,4.8795506,2193172734
Pasta e Basta,"Nieuwe Spiegelstraat 8-BG, 1017DE, Amsterdam",,https://www.pastaebasta.nl,,,italian,,52.3648567,4.8897795,2248089003
Zaza's,"Daniël Stalpertstraat 103, 1072XD, Amsterdam",,https://www.zazas.nl,,,french,,52.3561902,4.8921323,2248092355
Visaandeschelde,"Scheldeplein 4, 1078GR, Amsterdam",,https://www.visaandeschelde.nl,,,seafood,,52.3446707,4.8903816,2248180253
Café Modern,"Meidoornweg 2, 1031GG, Amsterdam",+31 20 494 0684,https://modernamsterdam.nl/,mail@modernamsterdam.nl,,fine_dining,Mo 18:00-22:00; We-Fr 18:00-22:00; Sa-Su 12:00-22:00,52.3864765,4.9090476,2250068174
Seoul Sista,"Reguliersdwarsstraat 20, 1017BM, Amsterdam",+31 20 247 0888,https://www.seoulsista.nl/eng/amsterdam-reguliersdwars-en/,reservationsrds@seoulsista.nl,@17841406347170097,barbecue;korean,Mo-Su 16:45-23:00,52.3664957,4.889928,2264496564
Saigon Càphê,"Stadsplein, Amsterdam",,https://www.saigoncaphe.nl/,,,vietnamese,,52.303164,4.859757,2280578452
Zorgeloos,"Stadsplein 14, Amstelveen",,https://zorgeloosetenendrinken.nl/,,,,,52.303103,4.86,2280578699
Hans im Glück,"Rembrandtplein 27-29, 1017CT, Amsterdam",,https://hansimgluck.nl/burger-restaurant/amsterdam-rembrandtplein/,,,burger,Su-Th 10:30 - 23:30; Fr-Sa 10:30 - 01:00,52.3664086,4.8974702,2285525429
De Maria,"Rembrandtplein 38, 1017CV, Amsterdam",,,,,steak_house,,52.3657161,4.8969539,2285599320
Eetcafé Lotgenoten,"Rijksstraatweg 215, 1115AR, Duivendrecht",+31 20 699 5819,https://www.eetcafelotgenoten.nl/,,,regional,Tu-Su 16:00-22:00,52.325298,4.938726,2297220026
Basilico,"Willemsstraat 29A, 1015HW, Amsterdam",+31 20 627 2685,http://www.basilico.nl/chi-siamo_nl.htm,,,italian,We-Mo 12:30-21:30,52.3813021,4.8855063,2300261652
The Cottage,"Linnaeusstraat 88, 1092CP, Amsterdam",,,,,,,52.356135,4.927206,2323680643
Al Basha,"Slotermeerlaan 97, 1064HA, Amsterdam",,https://www.albasha.nl,,,steak_house,Mo-Su 16:00-23:00,52.3780823,4.8196528,2332382653
Sichuan Chengdu Paradise,"Lange Niezel 24, 1012GT, Amsterdam",,,,,chinese,,52.3748435,4.8989394,2340297250
Tokyo Ramen Takeichi,"Reguliersdwarsstraat 23, 1017BJ, Amsterdam",+31 20 7861281,https://takeichi-ramen.eu/locations/the-netherlands/flower-market,info@takeichi-ramen.eu,@tokyoramentakeichi.nl,ramen,"Mo-Su 12:00-15:00, 17:00-21:00",52.3665994,4.8900626,2340314926
Nour,"Javastraat 109-H, 1094HC, Amsterdam",,,,,kebab;arab,,52.3638764,4.9365171,2348138319
Mesken,"Sumatrastraat 37, 1094LN, Amsterdam",+31 20 694 0277,https://restaurantmesken.nl/,,,turkish,"Mo-Fr 12:00-01:00, Sa,Su 09:00-03:00",52.363524,4.9358422,2348150436
The Meets,"Sumatrastraat 28-H, 1094ND, Amsterdam",+31 20 221 1642,,,,regional,Tu-Sa 17:30-22:00+,52.3641288,4.9351809,2348168280
Ricardo's,"Javastraat 47-H, 1094HA, Amsterdam",,https://www.eetricardos.nl/,,,surinamese,Tu-Su 12:00-21:00,52.3638127,4.9334419,2348193876
Mi Lobie,Amsterdam,,,,,chinese,We-Mo 12:00-21:00,52.3632451,4.9293848,2348245283
Yemen,Amsterdam,,,,,middle_eastern,Mo-Su 14:00-23:00,52.3634592,4.932866,2348245291
Selam Afrika,"Dapperstraat 96, 1093BZ, Amsterdam",,,,,ethiopian,,52.3609965,4.9283052,2348278277
Eethuis Brasa,"Dapperplein 36, 1093GS, Amsterdam",,,,,,Mo-Sa 11:30-20:30,52.3621673,4.9272578,2348278293
Roopram Roti,"Eerste Van Swindenstraat 4-H, 1093GC, Amsterdam",+31 20 6932902,https://www.roopramroti.nl/,,,surinamese,Tu-Su 14:00-21:00,52.3619315,4.9248386,2357174265
Pita Queen,"Eerste Van Swindenstraat 68, 1093GG, Amsterdam",,https://www.pitaqueen.nl/,,,pita,,52.3624719,4.92734,2357186489
Sterren van de Hemel,"Beukenplein 18, 1091KH, Amsterdam",+31 6 50954595,https://www.sterrenvandehemel.nl/,info@sterrenvandehemel.nl,,,,52.3569946,4.9177671,2363281643
Hoi Tin,"Zeedijk 122, 1012BB, Amsterdam",,https://www.hoitin.nl/,contact@hoitin.nl,,chinese,Mo-Su 12:00-22:00,52.373427,4.9001332,2363364999
Kumo Ramen,Amsterdam,,,,,japanese,"Mo,We,Th 17:00-22:00; Fr-Su 15:00-22:00",52.3636434,4.9266662,2364927896
De Tros,Amsterdam,,,,,,,52.3604696,4.9254308,2364927911
Ciro 1939,Amsterdam,,,,,italian,,52.3640736,4.9269583,2364931824
Café Wu,Amsterdam,,,,,,,52.3653341,4.926218,2364940139
Loulou Pizzabar,Amsterdam,,https://louloupizzabar.nl/,,,pizza,Mo-Th 16:00-22:00; Fr-Su 16:00-23:00,52.3557985,4.9074831,2366138134
PepeNero,"Eerste Oosterparkstraat 3-5, 1091GT, Amsterdam",+31 20 663 3276,https://www.restaurantpepenero.nl/,info@restaurantpepenero.nl,,italian,Mo-Sa 18:00-23:00,52.3557623,4.9078035,2366138135
Athene,Amsterdam,,,,,greek,,52.355855,4.9074488,2366138139
India Roti Room,Amsterdam,,,,,indian,,52.3562143,4.9096449,2366138154
Abu Amr,"Eerste Oosterparkstraat 91, 1091GW, Amsterdam",,,,,,Mo-Su 17:00-21:00,52.3562852,4.9099285,2366138167
Vanni,Amsterdam,,,,,,,52.3624259,4.928175,2366149832
Grand Café DeLaMar,"Marnixstraat 402, Amsterdam",,https://delamar.nl/,,,,,52.3642547,4.8810039,2381016223
La Boca,"Paleisstraat 15, 1012RB, Amsterdam",,https://www.laboca-restaurant.nl/,,,argentinian,,52.3725793,4.8912975,2385772430
Burger Bistro,"Paleisstraat 21, 1012RB, Amsterdam",,,,,,,52.3725149,4.8910962,2385772431
La Piazza,"Paleisstraat 3, 1012RB, Amsterdam",,https://www.lapiazza.nl/,,,pizza,Mo-Su 11:00-24:00,52.3725959,4.8915763,2385772432
Khorat,Amsterdam,,https://www.khorattopthai.nl/,,,thai,,52.3619696,4.8736896,2411522329
Dosa,Amsterdam,,https://www.dosaamsterdam.nl/,,,indian,,52.3624583,4.8733405,2411531952
Kartika,Amsterdam,,http://www.restaurantkartika.com/,,,indonesian,,52.3631469,4.8760412,2411543477
Trattoria Totò,Amsterdam,,http://www.trattoriatoto.nl/,,,italian,,52.3623193,4.8753654,2411543478
Tuin van Zuid,"Karperweg 1, 1075LA, Amsterdam",+31 20 679 1318,http://tuinvanzuid.nl/,info@tuinvanzuid.nl,,,Mo-Su 17:00-23:00,52.3485973,4.8570801,2412984319
Teds place,"Bosboom Toussaintstraat 60-H, 1054AV, Amsterdam",,https://teds-place.nl/,,,burger,,52.3652991,4.8747733,2414357179
Gertrude,"Bosboom Toussaintstraat 28, 1054AS, Amsterdam",,https://gertrudeamsterdam.nl,,,,,52.3656985,4.8761574,2414357181
Pastis,"Eerste Constantijn Huygensstraat 15, 1054BP, Amsterdam",,https://www.pastisamsterdam.nl,,,french,,52.364907,4.8744261,2414357187
Baut oost,"Wibautstraat 125, 1091GL, Amsterdam",+31 20 210 3011,https://bautoost.nl/,,,,"Su-Th 11:00-01:00, Fr,Sa 11:00-03:00",52.354594,4.9126544,2415203521
Kamasutra,"Lange Niezel 9, 1012GS, Amsterdam",+31 20 626 0003,https://www.restaurantkamasutra.nl,info@restaurantkamasutra.nl,@restaurantkamasutra,indian;indonesian,We-Su 16:00-23:00,52.3751045,4.898485,2415573533
Fook Sing,Amsterdam,,,,,chinese,,52.3605005,4.9404185,2420278547
Silk Road Kebab House,"Insulindeweg 513, Amsterdam",,https://www.silkroadkebab.nl/,,,uyghur,We-Mo 12:00-22:00,52.36192,4.9401627,2420278553
Strangelove,Amsterdam,,https://www.lab111.nl/strangelove/,,,,,52.3635226,4.8672763,2421175363
Hap Hmm,"Eerste Helmersstraat 33, Amsterdam",+31 20 770 8924,https://www.hap-hmm.nl/,,@haphmm,dutch,Mo-Fr 17:00-21:15,52.3636692,4.8762231,2423864348
The Bab,"Eerste Constantijn Huygensstraat 41, 1054BR, Amsterdam",,,,,,,52.3641171,4.8746661,2423888959
Drovers dog,"Eerste Atjehstraat 62, 1094KP, Amsterdam",,http://drovers-dog.com/,,,,"We-Fr 10:00-16:00; Sa,Su 10:00-17:00",52.3624869,4.9348568,2426599349
De Pizzabakkers To Go,"Leliegracht 34, 1015DG, Amsterdam",,https://www.depizzabakkers.nl,,,pizza,Mo-Su 12:00-22:00,52.3753539,4.8865459,2429444887
Dionysos Taverna,"Overtoom 176, 1054HR, Amsterdam",,,,,greek,,52.3622131,4.872408,2429947225
Bar Lusconi,"Mercatorplein 2-B, 1057CB, Amsterdam",,https://www.barlusconi.nl/,,@cafezurichamsterdam,italian,"Su-Th 10:00-00:00; Fr,Sa 10:00-01:00",52.3693957,4.8509981,2433889361
Vegan Sushi Bar,"Kinkerstraat 83, 1053DH, Amsterdam",,,,,sushi,Mo-Su 12:00-21:00,52.3668829,4.8713845,2441927947
Paon Bali,"Levantplein 84, 1019MB, Amsterdam",,,,,,We-Sa 17:30-20:30,52.3769828,4.9433629,2452217939
Pancakes Amsterdam,"De Ruijterkade 35, 1012AA, Amsterdam",,,,,,,52.3805448,4.9000257,2462650332
Yogya,"Johan Huizingalaan 142, 1065JG, Amsterdam",+31 20 615 2704,,,,indonesian,,52.3596125,4.8266758,2503228093
Floreyn,"Albert Cuypstraat 31, 1072CL, Amsterdam",,https://restaurantfloreyn.nl,,,regional,,52.3547401,4.8878122,2505936657
Locals Coffee,"Eerste Jacob van Campenstraat 27, 1072BC, Amsterdam",,https://www.localscoffee.nl/,,,breakfast,Mo-Fr 08:00-16:00; Sa-Su 08:00-17:00,52.3575639,4.8890537,2505967266
ecole,Amsterdam,,,,,,,52.3568454,4.8917232,2506022419
Venster 33,"Eerste Van der Helststraat 42, 1072NV, Amsterdam",,https://www.venster33.nl/,info@venster33.nl,@venster33,,Mo-Th 16:00-01:00; Fr 16:00-03:00; Sa 11:00-03:00; Su 11:00-01:00,52.3565111,4.8924627,2506027859
Qlique,"Quellijnstraat 104, 1072XZ, Amsterdam",+31 20 670 0736,https://bistro-qlique.nl/,info@bistro-qlique.nl,@qlique.amsterdam,,Mo-Th 18:00-00:00; Fr-Sa 16:00-03:00,52.3566003,4.8921411,2506027860
Caffè Pico,"Ferdinand Bolstraat 72-H, 1072LM, Amsterdam",,https://caffepico.com,,,,,52.3551935,4.8899995,2506045200
Soju Bar,"Ferdinand Bolstraat 13-15, 1072LA, Amsterdam",,https://sojubar.nl/amsterdam/,,,korean,,52.3564166,4.8907503,2506047393
The Seafood Bar,"Ferdinand Bolstraat 32-H, 1072LK, Amsterdam",,https://www.theseafoodbar.com/,,,,Mo-Th 17:00-23:00; Fr-Su 12:00-23:00,52.3564584,4.8904668,2506047855
Sari Citra,"Ferdinand Bolstraat 52-H, 1072LL, Amsterdam",,https://www.saricitra.nl,,,asian,,52.3557906,4.8903571,2506051482
Spang Makandra,"Gerard Doustraat 33-H, 1072VK, Amsterdam",,https://www.spangmakandra.nl/,,,surinamese,,52.3553531,4.889652,2506067250
Moksi,"Ferdinand Bolstraat 21, 1072LB, Amsterdam",,http://www.moksi.nl,,,asian,,52.3561034,4.89072,2506067253
Brut de Mer,"Gerard Douplein 8, Amsterdam",+31 20 471 4099,https://brutdemer.nl,brutdemer@gmail.com,,seafood,Mo-Th 16:00-06:00; Fr-Su 13:00-06:00,52.355762,4.8925635,2506067900
Brasserie SenT,"Saenredamstraat 39, Amsterdam",+31 20 676 2495,,,,,,52.3558124,4.8890004,2506076504
Da Portare Via,"Frans Halsstraat 63, 1072BM, Amsterdam",,http://daportarevia.nl,,,pizza,,52.3559435,4.8888207,2506079504
Orontes,"Albert Cuypstraat 40-42, 1072CV, Amsterdam",,https://orontes.nl/,,,turkish,,52.3545108,4.8886773,2506083753
Auberge,"Albert Cuypstraat 58-H, 1072CV, Amsterdam",+31 20 845 20 05,https://www.aubergeamsterdam.nl/auberge,info@aubergeamsterdam.nl,@auberge_amsterdam,french,"Mo-Su 12:00-14:00, 17:30+",52.3546442,4.8892619,2506092429
Albina,"Albert Cuypstraat 69, 1072CN, Amsterdam",,https://www.albina-amsterdam.nl/,,,surinamese;chinese,,52.3549752,4.8896402,2506116240
Monte Verde,"Albert Cuypstraat 15-17, 1072CK, Amsterdam",,https://www.restaurantmonteverde.nl/,,,italian,,52.3547524,4.8872973,2506116244
Arles,"Govert Flinckstraat 251, 1073BX, Amsterdam",+31 20 679 8240,https://www.arles-amsterdam.nl,info@arles-amsterdam.nl,,french,Mo-Su 17:30+,52.3563227,4.8980852,2506127773
Samuel's,"Tweede Jan Steenstraat 1, 1073VK, Amsterdam",,,,,,,52.3556155,4.8982139,2506128645
101 Gowrie,"Govert Flinckstraat 326-hs, 1073CJ, Amsterdam",,,,,,"We-Sa,PH 18:00-23:30",52.356516,4.8994727,2506130181
Trattoria l'Angoletto,"Hemonystraat 18, 1074BP, Amsterdam",,,,,italian;pizza,Th-Su 18:00-22:00,52.357297,4.902082,2506133343
Vamos a Ver,"Govert Flinckstraat 308, 1073CJ, Amsterdam",,https://www.vamosaver.nl,,,spanish,,52.3563096,4.8987826,2506134815
De pizzakamer,"Tweede Van der Helststraat 16, 1072PD, Amsterdam",+31 20 221 1457,https://www.pizzakamer.nl/,info@pizzakamer.nl,,pizza,Mo-Su 17:00-22:00,52.3524311,4.8946789,2506146374
La Nostra Gigi,"Marie Heinekenplein 5-8, 1072MH, Amsterdam",,,,,,,52.3573485,4.891505,2506386115
Sol El Luna,"Ferdinand Bolstraat 158, 1072LT, Amsterdam",,https://solelluna.nl/,,,tapas,,52.3520124,4.8912007,2506636566
Romio's Taverna,"Ceintuurbaan 350, 1072GP, Amsterdam",+31 20 675 4324,https://www.romiostaverna.com/,info@romiostaverna.com,@romiostaverna,greek,Tu-Sa 12:00-21:00; Su 14:00-21:00,52.3530525,4.8943669,2506660247
Takumi Ramen,"Scheldestraat 1, 1078GD, Amsterdam",+31 20 2386071,https://takumiramennoodles.com/nl/amsterdam-rivierenbuurt/,takumi2@ramenkitchen.nl,@takumiramenamsterdam,asian;japanese;ramen,Mo 12:00-21:30; We-Sa 12:00-21:30; Su 12:00-21:00,52.3478993,4.89153,2507085781
Mozo,"Van Woustraat 89, 1074AE, Amsterdam",,https://www.restaurantmozo.nl,,,,,52.354565,4.9016793,2507157037
Annavilaas,"Van Woustraat 117-119, 1074AH, Amsterdam",+31 20 786 4739,https://www.annavilaas.com/nl/,,,indian,,52.3536801,4.9023728,2507159711
Maris Piper Brasserie,"Frans Halsstraat 76, 1072BV, Amsterdam",,https://www.bredagroup-amsterdam.com/restaurant-maris-piper/,,,french,,52.3556713,4.888436,2508437585
Juuls,"Albert Cuypstraat 19, 1072CK, Amsterdam",,http://www.restaurantjuuls.nl,,,,,52.3547449,4.8874016,2509600417
Le Restaurant,"Tweede Jan Steenstraat 3, 1073VK, Amsterdam",,https://www.lerestaurant.nl,,,,,52.3556536,4.8983333,2509618306
La Vida Argentinian Steakhouse,"Zeedijk 97, 1012AT, Amsterdam",,,,,argentinian,,52.3740475,4.9003906,2524864843
Warie's Thai Food,"Rozengracht 235, 1016NA, Amsterdam",+31 20 622 3638,https://wariesthaifood.nl/,,,thai,,52.3722133,4.8765783,2531817767
Apostrof,"Planciusstraat 49, Amsterdam",,,,,,,52.386492,4.88492,2574757257
Floor 17,Amsterdam,,http://www.floorseventeen.nl/,,,,"Su-Th 10:00-24:00, Fr,Sa 10:00-01:00",52.368119,4.8441167,2600983668
Cafe de Prins,Amsterdam,,,,,,,52.3761561,4.8840094,2610881750
Café De Klos,"Kerkstraat 41-43, 1017GB, Amsterdam",+31 20 625 3730,https://dekloscafe.wordpress.com,,,barbecue,"Mo-Th 16:00-23:00; Fr,Sa 14:00-23:00; Su 14:00-22:00",52.3653542,4.8856662,2626432820
Verlan,"Prinsengracht 381, 1016HL, Amsterdam",,https://www.cafeverlan.com,,,,"Mo-Th 18:00-01:00; Fr-Su 12:00-15:00,18:00-01:00",52.3715796,4.8832081,2626494421
La Perla,"Tweede Tuindwarsstraat 14, 1015RZ, Amsterdam",,https://pizzaperla.nl,,,pizza,Mo-Su 17:00-22:00,52.3770366,4.881768,2631200752
Libertine Petit Cafe,"Noordermarkt 4, 1015MV, Amsterdam",,https://www.libertine.amsterdam,,,,"We-Sa 09:00-24:00; Su,Mo 09:00-18:00",52.3801502,4.8876166,2631625103
Café Van Puffelen,"Prinsengracht 375-377, 1016HL, Amsterdam",+31 20 624 6270,https://www.restaurantvanpuffelen.com,,,,,52.3716857,4.8832208,2634175001
Sushito,"Eerste Van der Helststraat 74-H, 1072NZ, Amsterdam",,,,,sushi,11:30-21:30,52.3547583,4.8933578,2638450394
Thrill Grill,"Gerard Doustraat 98, 1072VX, Amsterdam",,https://thrillgrill.nl/,,,burger,,52.3557472,4.8924763,2641085732
Le 4 Stagioni,"Johannes Verhulststraat 32, 1071NE, Amsterdam",+31 20 662 0071,https://www.le4stagioni.nl/,info@le4stagioni.nl,,italian,Su-Th 17:00-22:00; Fr-Sa 17:00-23:00,52.3555256,4.8754197,2641587834
Renato's pizzeria,Amsterdam,,https://renatos.nl,,,pizza,,52.3512033,4.8945419,2647227085
Cafe Kadijk,"Kadijksplein 5, 1018AB, Amsterdam",+31 6 17744411,https://www.cafekadijk.nl/,,,indonesian,Mo-Su 17:00-01:00,52.3701143,4.9121073,2708542899
Lucky House,"Willemsstraat 22, 1015JD, Amsterdam",+31 20 620 9295,https://lucky-house.nl/,,,chinese,Th-Tu 12:00-21:30; We off,52.3814204,4.8852774,2720812936
Tapas Cafe Duende,"Lindengracht 62, 1015KJ, Amsterdam",+31 20 244 3653,https://www.cafe-duende.nl,,,spanish,Mo-Fr 17:00-24:00; Sa 13:00-24:00; Su 15:00-24:00,52.3805948,4.8861605,2720815552
Gossler & Florin,"Lindengracht 90-H, 1015KK, Amsterdam",+31 6 1594 6271,https://www.brasseriegf.com/,,@brasseriegf,,"Th 17:30-24:00, Fr 17:30-01:00, Sa,Su 12:30-01:00, Mo 17:30-24:00",52.3805171,4.8856647,2720816643
Hummus Bistro D&A,"Westerstraat 136, 1015MP, Amsterdam",+31 20 341 6487,https://dna-hummusbistro.com,info@dna-hummusbistro.com,,lebanese;turkish,"We,Th,Su,Mo 12:00-21:00; Fr,Sa 12:00-22:00",52.3784324,4.8826599,2720874235
Shahjahan Indian restaurant,"Eerste Anjeliersdwarsstraat 18, 1015NR, Amsterdam",,,,,indian,,52.3779678,4.8834292,2720877649
OSAKAsan,"Tweede Egelantiersdwarsstraat 24A, 1015SC, Amsterdam",+31 20 320 4447,,,,japanese,We-Mo 12:00-22:00,52.3764435,4.8821689,2720880868
Omelegg,"Westerstraat 30-H, 1015MK, Amsterdam",+31 20 782 0007,https://omelegg.com,,,,Mo-Fr 07:00-16:00; Sa-Su 08:00-16:00,52.3789055,4.8853349,2720882408
Hinata,"Westerstraat 40-H, 1015MK, Amsterdam",+31 20 215 9392,https://www.hinataamsterdam.nl,,,ramen,Mo-Sa 12:00-22:00; Su off,52.3788579,4.8850906,2720883968
Assaggi,"Tweede Egelantiersdwarsstraat 6, 1015SC, Amsterdam",,,,,italian_pizza,,52.3768248,4.8819791,2720887312
La Maschera,"Tweede Anjeliersdwarsstraat 6-H, 1015NT, Amsterdam",+31 20 786 4652,https://lamaschera.nl/,,,italian,Tu-Su 17:00-22:30+; Mo off,52.3778106,4.881397,2720887376
Salvatorica,"Lijnbaansgracht 71, 1015GX, Amsterdam",+31 20 758 0619,https://salvatorica.business.site,,,italian,Mo off; Tu-Fr 17:30-22:00; Sa 12:00-22:00; Su 13:00-22:00,52.3768609,4.8788892,2720889159
Sins of Sal,"Westerstraat 86-H, 1015MN, Amsterdam",,https://www.sinsofsal.nl/,,,,Su-Th 18:00-24:00; Fr-Sa 18:00-02:00,52.3786807,4.8839936,2720890857
Café P96,"Prinsengracht 96-H, 1015DZ, Amsterdam",+31 20 622 1864,http://p96.nl,,,,"Su-Fr 12:00-03:00, Sa 12:00-04:00",52.3770744,4.8848886,2720891656
Thaise Afhaal Dong Son,"Rozengracht 22, 1016NC, Amsterdam",+31 20 233 9439,https://thaisafhaalrestaurantdongson.nl/,,,thai,12:00-20:00; We closed,52.3738723,4.8819925,2720971582
Box Sociaal,"Bloemgracht 47, 1016KD, Amsterdam",+31 20 280 5578,https://www.boxsociaal.com,,,,"Th-Mo 09:00-15:45, Fr-Sa 17:00-22:00",52.3746969,4.8814692,2720972543
I Love Sushi & Poké Bowl: Amsterdam Centrum,"Haarlemmerdijk 2, 1013JC, Amsterdam",,https://ilovesushi.nl/location/i-love-sushi-amsterdam-centrum-2/,,,sushi,,52.3816816,4.8890993,2721296699
The Breakfast Club,"Haarlemmerplein 31-H, 1013HR, Amsterdam",,https://thebreakfastclub.nl/,,,,Mo-Su 08:00-18:00,52.3845801,4.882913,2721298254
Calisto,"Haarlemmerdijk 61, 1013KB, Amsterdam",,https://www.calistoamsterdam.nl/,,@calisto.ams,italian,"Mo-Fr 18:00-00:00; Sa-Su 13:00-15:30, 18:00-00:00",52.3823801,4.8875063,2721299549
Rue la Bastille,"Haarlemmerdijk 66-H, 1013JE, Amsterdam",,https://www.ruelabastille.nl,,,mediterranean,Mo-Su 12:00-20:30,52.3826224,4.8874638,2721299615
Seasons Restaurant,"Herenstraat 16-2, 1015CA, Amsterdam",,https://www.seasonsrestaurant.nl/,,,international,"Mo,We-Fr 16:00-22:00; Sa,Su 12:00-22:00",52.3771918,4.8890188,2721355184
Linguini,"Herenstraat 22-H, 1015CB, Amsterdam",,https://linguini.nl,,,italian,,52.3772628,4.8888271,2721356639
Momenti,"Herenstraat 25-H, 1015BZ, Amsterdam",,https://momenti-italiancuisine.nl,,,,,52.3771897,4.8886074,2721358076
Chez Georges,"Herenstraat 3-H, 1015BX, Amsterdam",,https://chez-georges.nl,,,,,52.3769675,4.8892706,2721358653
Breda,"Singel 210, 1016AB, Amsterdam",+31 20 622 5233,https://bredagroup-amsterdam.com,,,international,,52.3738307,4.8885781,2721472824
Pat's Poffertjes,"Oude Leliestraat 7, 1016BD, Amsterdam",,,,,,,52.3746328,4.8886178,2721472967
Habsburg,"Stromarkt 1-H, 1012SW, Amsterdam",,,,,regional,,52.3787473,4.8944988,2721518009
Flame Steakhouse,"Martelaarsgracht 10, 1012TP, Amsterdam",+31 20 707 4565,,,,american,,52.3780859,4.8966526,2721518038
Singel,"Singel 101-H, 1012VG, Amsterdam",+31 20 771 0915,https://www.singel101.nl/,,,,"Tu-Fr ""on request""; Sa-Su 13:00-17:00",52.3758577,4.8912919,2721518184
Savini,"Spuistraat 1D-1, 1012SP, Amsterdam",,,,,italian,,52.3773426,4.8946958,2721521341
Il Pacioccone,"Koggestraat 1K, 1012TA, Amsterdam",+31 20 341 9099,,,,italian,"Mo,We-Su 17:00-23:00; Tu off",52.3774814,4.8937331,2721521351
Joselito Tapas,"Nieuwendijk 2, 1012MK, Amsterdam",,https://joselito.nl/,,,spanish,,52.3787879,4.8946403,2721521381
Las Tapas,"Martelaarsgracht 26, 1012TR, Amsterdam",,,,,spanish,,52.3779394,4.8959275,2721521690
Van Speyk,"Spuistraat 3-A, 1012SP, Amsterdam",,https://vanspeyk.amsterdam/,,,,,52.3773168,4.8946522,2721521804
London Bridge,"Nieuwezijds Voorburgwal 36, 1012SB, Amsterdam",,https://www.londonbridge.nl/,,,,,52.3768536,4.8941772,2721521925
Gringo,"Nieuwendijk 38-H, 1012ML, Amsterdam",,,,,,,52.3780815,4.8955288,2721521965
Joya,"Spuistraat 3G, 1012SP, Amsterdam",,,,,asian,,52.3770954,4.8942271,2721522020
De Silveren Spiegel,"Kattengat 4, 1012SZ, Amsterdam",,,,,regional,,52.3777125,4.8939878,2721522026
SUMO,"Nieuwezijds Voorburgwal 4, 1012RZ, Amsterdam",+31 20 261 1861,https://restaurantsumo.com,,,japanese,"Mo-Sa 12:00-22:30, Su 12:00-22:00",52.3773967,4.8950817,2721522032
Day's Foodbar,"Spuistraat 4-1, 1012TS, Amsterdam",,http://daysfoodbar.eu/,,,,,52.3773,4.8940478,2721522037
Lamour Tapas,"Stromarkt 4-H, 1012SW, Amsterdam",,,,,spanish,,52.3783449,4.8940732,2721522052
Madre Maria,"Nieuwendijk 40-H, 1012ML, Amsterdam",+31 20 320 7164,http://madremaria.nl,,,argentinian,Mo-Su 12:00-23:00,52.3780547,4.8955733,2721522058
Made in Sud,"Korte Lijnbaanssteeg 4B, 1012SL, Amsterdam",,,,,,,52.3759379,4.8925048,2721522199
​Tales & Spirits,"Lijnbaanssteeg 5, 1012TE, Amsterdam",,https://www.talesandspirits.com/,,,,,52.3760977,4.8917919,2721522214
Curry Express,"Spuistraat 50-H, 1012TV, Amsterdam",,,,,thai,,52.3762179,4.8923684,2721522232
Ashoka,"Spuistraat 54D, 1012TV, Amsterdam",,https://www.ashokarestaurant.nl/,,,indian,,52.3761624,4.8921696,2721522291
Maenaam Thai,"Spuistraat 90A, 1012TZ, Amsterdam",,https://www.maenaamthai.nl/,,,thai,Mo-Su 17:00-22:00,52.3752589,4.8910963,2721523305
Ristorante Orvieto,"Nieuwendijk 9A, 1012LZ, Amsterdam",,,,,pizza,,52.3787174,4.8949789,2721523437
Mr Meat,"Haarlemmerstraat 118, 1013EX, Amsterdam",,,,,,,52.3809275,4.8904601,2721575503
Las Marias,"Haarlemmerstraat 32-H, 1013ER, Amsterdam",,,,,,,52.3798434,4.8933219,2721577778
Dal Migliore,"Gravenstraat 11, 1012NL, Amsterdam",,,,,,,52.3742135,4.8925618,2721722559
De Pannenkoekerij,"Gravenstraat 5, 1012NL, Amsterdam",,,,,pancake,,52.3742322,4.8927232,2721723083
Tandoori Bites,"Nieuwezijds Kolk 11, 1012PV, Amsterdam",,,,,,,52.376146,4.8947431,2721771226
Kebab Restaurant,"Nieuwezijds Kolk 12-H, 1012PV, Amsterdam",,,,,,,52.3763575,4.8947918,2721771257
Mama Maria,"Nieuwezijds Kolk 14, 1012PV, Amsterdam",,,,,,,52.3763616,4.894726,2721771371
De Vergulde Lantaarn,"Nieuwendijk 145, 1012MD, Amsterdam",,,,,,,52.3757528,4.8952908,2721771384
Formosa Argentina,"Nieuwezijds Kolk 16, 1012PV, Amsterdam",,,,,,,52.3763703,4.8946672,2721771423
Five Bells,"Nieuwezijds Kolk 17, 1012PV, Amsterdam",+31 20 638 6088,https://fivebellsamsterdam.nl/,,,barbecue,Su-Th 11:00-01:00; Fr-Sa 11:00-03:00,52.3761452,4.8945522,2721771441
Pastabar,"Damrak 19, 1012LH, Amsterdam",,,,,,,52.3765427,4.8972206,2721771496
Cuddle,"Nieuwe Nieuwstraat 20H, 1012NH, Amsterdam",+31 20 846 4680,https://www.cuddlepub.com/,,,regional,"Mo-Th 00:00-01:15,12:00-24:00; Fr,Sa 00:00-03:00,12:00-24:00; Su 00:00-01:00,12:00-24:00",52.3753635,4.893945,2721771699
Akhnaton,"Nieuwezijds Kolk 25, 1012PV, Amsterdam",,,,,,,52.3761436,4.8941704,2721771804
Ava Thomas,"Nieuwezijds Kolk 3, 1012PV, Amsterdam",,,,,,,52.3761468,4.894934,2721772005
Marco Polo,"Damrak 31, 1012LJ, Amsterdam",,,,,,,52.3761088,4.8966233,2721772061
Haarlemsch Koffiehuis,"Prins Hendrikkade 36, 1012TM, Amsterdam",,,,,regional,,52.377496,4.8973569,2721772293
The King,"Nieuwezijds Voorburgwal 41, 1012RD, Amsterdam",,,,,,,52.3761061,4.8938037,2721772649
Delta,"Damrak 43, 1012LK, Amsterdam",,,,,,,52.3756749,4.8960113,2721772679
De Markies,"Damrak 47, 1012LL, Amsterdam",,,,,,,52.3754671,4.8957493,2721772804
Istanbul,"Nieuwendijk 51, 1012MB, Amsterdam",,,,,turkish,,52.3776283,4.8962763,2721772967
Angus Steak House,"Nieuwezijds Voorburgwal 61-H, 1012RE, Amsterdam",,,,,,,52.3757031,4.893133,2721773305
Verona,"Nieuwezijds Voorburgwal 63-H, 1012RE, Amsterdam",,,,,italian,,52.3756268,4.8930753,2721773361
San Thomas,"Martelaarsgracht 7-H, 1012TN, Amsterdam",,,,,argentinian,,52.3777974,4.896566,2721773470
Los Toros,"Damrak 9, 1012LG, Amsterdam",,,,,,,52.3768499,4.8976137,2721773564
La Colina,"Nieuwezijds Kolk 9, 1012PV, Amsterdam",,,,,,,52.3761464,4.8948459,2721773577
San Tommaso,"Martelaarsgracht 9-H, 1012TN, Amsterdam",,,,,italian,,52.3777884,4.8965036,2721773595
Amigo,"Prinsengracht 188-H, 1016HC, Amsterdam",,https://www.amigogrill.nl,,,argentinian,,52.3736685,4.8826702,2721823451
Men Impossible,"Hazenstraat 19-H, 1016SM, Amsterdam",+31 6 84544469,https://www.menimpossible.com/,,,ramen,We-Mo 17:00-22:00,52.370691,4.8799586,2721823486
Raïnaraï,"Prinsengracht 252, 1016HG, Amsterdam",,https://www.rainarai.nl/,,,arab;curry,,52.3720139,4.8825126,2721824802
Venus & Adonis,"Prinsengracht 274, 1016HH, Amsterdam",+31 20 421 18 48,https://www.venusenadonis.nl/,info@venusenadonis.nl,,,Mo-Fr 17:30-24:00; Sa-Su 13:00-01:00,52.371061,4.8824357,2721825006
Kathmandu Kitchen,"Balboastraat 24, 1057VW, Amsterdam",+31 20 370 3962,https://www.kathmandukitchen.nl,,,nepalese;indian,Mo-Su 16:00 - 23:00,52.3692319,4.854705,2721825437
Amigo,"Rozengracht 5, 1016LP, Amsterdam",,https://www.amigogrill.nl,,,argentinian,,52.3736855,4.8824499,2721826417
Palladio,"Elandsgracht 64-H, 1016TX, Amsterdam",+31 20 627 7442,https://www.restaurantpalladio.nl/,,,italian,Mo-Sa 15:00-22:00; Su off,52.3699335,4.8811565,2721829907
Nooch,"Reestraat 11-H, 1016DM, Amsterdam",,,,,,,52.3723046,4.8840875,2721938011
Il Panorama,"Herengracht 194-H, 1016BS, Amsterdam",+31 20 627 9577,https://ilpanorama.nl/,,,,09:00-22:00,52.3732906,4.8868157,2721938720
Libertine Comptoir de Cuisine,"Berenstraat 20-H, 1016GH, Amsterdam",,,,,,,52.3704638,4.8835144,2721938790
Steakhouse,"Westermarkt 23, 1016DJ, Amsterdam",,,,,,,52.3738712,4.8838575,2721939469
Sefa,"Westermarkt 25-H, 1016DJ, Amsterdam",,https://www.sefarestaurant.nl,,,kebab,,52.3738794,4.8838132,2721940166
Toos & Roos,"Berenstraat 36, 1016GH, Amsterdam",+31 20 626 2300,https://www.toosenroos.nl/,,,breakfast;lunch,,52.3704586,4.8832856,2721944930
Fou Fow Udon,"Prinsengracht 411-H, 1016HM, Amsterdam",+31 20 3415015,https://foufow.nl/,,,noodle,,52.3711365,4.8831614,2721946100
Casa di David,"Singel 426-H, 1017AV, Amsterdam",,https://www.casadidavid.com/,,,italian,,52.3683332,4.8877667,2722192478
The Happy Pig,"Rosmarijnsteeg 12, 1012RP, Amsterdam",,https://www.thehappypig.nl/,,,pancakes,,52.3703979,4.8892712,2722208526
Miso Sushi,"Spuistraat 267A, 1012VR, Amsterdam",,https://www.misosushi.nl/,,,sushi,,52.3700707,4.8891987,2722210474
Sagardi,"Spuistraat 304, 1012VX, Amsterdam",+31 10 200 4317,https://sagardi.nl/,,,basque,Mo-Su 12:00-22:00,52.3693981,4.8886343,2722211288
Luden,"Spuistraat 306, 1012VX, Amsterdam",,http://ludenamsterdam.nl/,,,regional,,52.3693703,4.8886235,2722211292
Hanoi Old Quarter Restaurant,"Nieuwezijds Voorburgwal 306-O, 1012RV, Amsterdam",,https://www.hanoioq.com/,,,vietnamese,Mo-Su 17:00-22:00,52.3703139,4.8896426,2722211311
Dante,"Spuistraat 320, 1012VX, Amsterdam",,https://www.amsterdamdante.nl/,,,,,52.3691074,4.8885882,2722211694
Trattoria Da Tonino,"Nieuwezijds Voorburgwal 346A, 1012RX, Amsterdam",,https://trattoriadatonino.nl/,,,italian,,52.3690672,4.8891393,2722212002
Miu,"Nieuwezijds Voorburgwal 161, 1012RK, Amsterdam",,,,,asian,,52.3722745,4.8909682,2724000479
FuLu Mandarijn,"Rokin 26, 1012KS, Amsterdam",,https://fulumandarijn.com,,,,"Mo-Th,Su 11:30-22:00; Fr-Sa 11:30-22:30",52.3716882,4.8926194,2724000589
Tomaz,"Begijnensteeg 6, 1012PN, Amsterdam",+31 20 320 6489,https://tomaz.nl/,,,,Mo-Su 12:00-22:00,52.3695142,4.8907201,2724001244
Gartine,"Taksteeg 7, 1012PB, Amsterdam",+31 20 320 4132,https://www.gartine.nl,,,breakfast;lunch,Mo-Su 10:00-18:00,52.369203,4.8915165,2724001420
Eetcafé 't Pakhuis,"Voetboogstraat 10-12, 1012XL, Amsterdam",,https://eetcafehetpakhuis.nl/nl/,,@pakhuisadam,steak_house,Mo-Su 13:00-22:30,52.3682105,4.8906317,2724038527
Parmigiano,"Rokin 132-H, 1012LD, Amsterdam",,,,,italian,,52.3683459,4.89216,2724038574
The Seafood Bar,"Spui 15, 1012WX, Amsterdam",+31 20 233 7452,https://www.theseafoodbar.com/,,,seafood,12:00-23:00,52.3687252,4.890586,2724038590
Cannibale Royale Handboogstraat,"Handboogstraat 17A, 1012XM, Amsterdam",+31 20 233 7160,https://www.cannibaleroyale.nl,bookingcr@cannibaleroyale.nl,@cannibaleroyale,burger;steak_house;sandwich,Su-Th 18:00-01:00; Fr-Sa 18:00-02:00,52.3679936,4.890326,2724038682
The Chicken Bar,"Voetboogstraat 6-H, 1012XL, Amsterdam",,http://chickenbar.amsterdam,,,,,52.3682911,4.8905863,2724039118
Frenzi,"Zwanenburgwal 232, 1011JH, Amsterdam",+31 20 423 5112,https://www.frenzi-restaurant.nl/,info@frenzi.nl,,italian,,52.3681175,4.8984883,2724185590
Mogul,"Rokin 107A, 1012KN, Amsterdam",,,,,,,52.3696788,4.8928323,2724219947
Adam & Siam,"Rokin 93-H, 1012KM, Amsterdam",,,,,,,52.3700733,4.8928893,2724220545
The Mexican,"Damstraat 10, 1012JM, Amsterdam",+31 20 330 3990,https://www.the-mexican.nl,,@themexicanamsterdam,mexican,,52.3722528,4.8943899,2724249238
La Stego,"Damstraat 12, 1012JM, Amsterdam",,,,,,,52.372253,4.8944339,2724249295
Dragon City,"Damstraat 18, 1012JM, Amsterdam",+31 20 623 1529,https://www.restaurantdragoncity.nl/,,,chinese,,52.3721729,4.8946257,2724249424
Ter,"Oude Doelenstraat 18, 1012ED, Amsterdam",+31 20 774 6829,http://www.ter-steakhouse.nl/,,,steak_house,,52.371516,4.896586,2724249427
Argentinos,"Damstraat 34, 1012JM, Amsterdam",+31 20 626 9455,http://www.argentinosgrill.nl/,,,steak_house,,52.3719866,4.8952151,2724250111
The Mexican,"Damstraat 36, 1012JM, Amsterdam",,,,,,,52.3719689,4.8952741,2724250142
Steakhouse,"Damstraat 38, 1012JM, Amsterdam",,,,,,,52.3719511,4.8953183,2724250177
Het Groene Paleis,"Rokin 65, 1012KK, Amsterdam",+31 20 8203535,https://hetgroenepaleis.nl/,,,,,52.3709518,4.8931177,2724250308
Anna,"Warmoesstraat 111-H, 1012JA, Amsterdam",,http://www.restaurantanna.nl/,,,,,52.3741944,4.8966449,2724283797
Fabian,"Lange Niezel 19-H, 1012GS, Amsterdam",,https://restaurant-fabian.com/,,@fabianrestaurante,pizza;steak_house,Mo-Su 12:00-22:00,52.3750087,4.8987428,2724284370
Carne Argentina,"Damstraat 21, 1012JL, Amsterdam",,,,,,,52.372113,4.8953459,2724284463
Bella Roma,"Lange Niezel 22B, 1012GT, Amsterdam",,,,,pizza,,52.3748714,4.8988448,2724284522
Hong Kong Kitchen,"Lange Niezel 25-H, 1012GS, Amsterdam",+31 20 774 7711,,,,,Fr-Su 12:00-01:00; Mo-Th 15:00-00:00,52.3749491,4.8989021,2724284643
Ramen-ISM,"Lange Niezel 27-H, 1012GS, Amsterdam",+31 6 206 94 661,https://linktr.ee/ramen_ism.ams,,,,,52.3749155,4.8989951,2724284805
New Season,"Warmoesstraat 39, 1012HV, Amsterdam",+31 20 625 6125,https://www.noodlebarbynewseason.nl/,,,chinese,Th-Mo 13:00-21:00; We 15:00-21:00,52.3755417,4.898568,2724285007
La Paella,"Warmoesstraat 43, 1012HV, Amsterdam",+31 20 625 5975,https://www.lapaella.nl,,@lapaellaamsterdam,spanish,12:00-23:30,52.3754964,4.8984804,2724285108
Pasta Pasta,"Warmoesstraat 49, 1012HW, Amsterdam",+31 20 331 1199,https://pasta-pasta.nl,,,italian,,52.3753933,4.8983261,2724285295
La Santa Maria,"Zeedijk 23, 1012AP, Amsterdam",,,,,,,52.3757396,4.9008127,2724334289
Soep van Kana,"Oudezijds Voorburgwal 95, 1012EL, Amsterdam",,,soepvankana@oudezijds100.nl,,,Th-Fr 12:00-19:00,52.3734641,4.8982385,2724354741
Burger Zaken,"Oude Hoogstraat 2-H, 1012CE, Amsterdam",,https://burger-zaken.net/,,,,,52.3713648,4.8969847,2724826841
Tasteful,"Oude Hoogstraat 9, 1012CD, Amsterdam",,,,,,,52.3713848,4.897448,2724827291
Bella Ciao,"Geldersekade 120, 1012BN, Amsterdam",,,,,italian,,52.3733654,4.900457,2725661022
Hot&Hot Hotpot,"Zeedijk 57, 1012AS, Amsterdam",+31 20 221 2245,https://hotandhot.eu,,,chinese;bubble_tea,,52.3749859,4.9010753,2725662878
Wing Kee,"Zeedijk 78, 1012BA, Amsterdam",,,,,chinese,,52.374453,4.9004744,2725663253
Los Pilones,"Geldersekade 111-H, 1011EN, Amsterdam",,,,,mexican,,52.3731441,4.9012674,2725746634
Phu thai,"Koningsstraat 25, 1011ET, Amsterdam",+31 20 737 1009,http://www.phuthai.nl/,,,thai,Mo-Su 14:00-22:00,52.3724185,4.9019071,2725749618
De Witte Zwaan,"Sint Antoniesbreestraat 46, 1011HB, Amsterdam",,https://dewittezwaanamsterdam.nl/,,,dutch,,52.3712531,4.9004067,2725752657
Cafe Piazza,"Kloveniersburgwal 5, 1011JT, Amsterdam",+31 20 423 0164,https://cafepiazza.nl,,,italian;polish,Su-Th 15:00-23:00; Fr-Sa 15:00-23:30,52.3719346,4.9000321,2725753101
Eetcafe van Beeren,"Koningsstraat 54, 1011EW, Amsterdam",+31 20 622 2329,https://www.eetcafevanbeeren.nl/,pz.vanbeeren@gmail.com,,regional,Mo-We 17:00-01:00; Th 17:00-03:00; Fr 16:00-03:00; Su 16:00-01:00,52.3720695,4.902218,2725753515
Papa Ali Mix Grill,"Prins Hendrikkade 102-H, 1011AH, Amsterdam",+31 6 24988856,https://www.order.store/de/store/papa-ali-hahal-steakhouse-mix-grill-restaurant/CkQfgO0iVmqGgQeCW8zJtw,,,kebab,Mo-Su 13:00-04:00,52.3756525,4.9029486,2725793248
Geisha,"Prins Hendrikkade 106A, 1011AJ, Amsterdam",,http://www.restaurantgeisha.nl,,,,,52.3753974,4.9028284,2725793281
hemelse modder,"Oude Waal 11, 1011BZ, Amsterdam",+31 20 624 3203,https://www.hemelsemodder.nl,,,,,52.3731621,4.9034695,2725793336
Captein & Co,"Binnen Bantammerstraat 27, 1011CJ, Amsterdam",+31 20 627 8804,https://facebook.com/capteinenco,,,,"Mo-Fr 16:00-00:00; Sa, Su 12:00-00:00",52.3735954,4.9028871,2725794647
Restaurant Lastage,"Geldersekade 29, 1011EJ, Amsterdam",+31 20 737 0811,https://www.restaurantlastage.nl,,,,We-Su 18:30-00:00,52.3754586,4.9024018,2725794732
Portugalia Tasha,"Bakkersstraat 12, 1017CW, Amsterdam",+31 6 58 94 39 97,https://portugaliatasca.nl/,amsterdam@portugaliatasca.nl,,portuguese,Mo-Su 12:00-23:00,52.366794,4.8972106,2725878028
Steakhouse Tango,"Reguliersdwarsstraat 125, 1017BC, Amsterdam",+31 20 334 6692,https://www.tangogrill.nl/,info@tangogrill.nl,,,Mo-Su 12:00-23:00,52.365895,4.8950905,2725878090
tomo sushi,"Reguliersdwarsstraat 131, 1017BL, Amsterdam",,,,,japanese,,52.3658664,4.8953124,2725878182
Graphite by Peter Gast,"Paardenstraat 15-H, 1017CX, Amsterdam",+31 6 18829580,https://graphite.amsterdam/,,,,"We-Th 18:00-21:00; Fr-Sa 12:00-13:00,18:00-21:00",52.3664899,4.8982866,2725878388
Live Amsterdam restaurant and bar,"Thorbeckeplein 16-H, 1017CS, Amsterdam",,https://www.live-amsterdam.com,,,,We-Thu 12:00-04:00; Fr-Sa 12:00-05:00; Su 12:00-04:00,52.3653916,4.8955705,2725878433
Incanto,"Amstel 2, 1017AA, Amsterdam",+31 20 4233681,https://www.restaurant-incanto.nl,,,italian,Mo-Sa 17:30-00:00,52.3670166,4.8938599,2725878701
Restaurant 212,"Amstel 212, 1017AH, Amsterdam",+31 20 334 8685,https://www.212.amsterdam/restaurant-212,info@restaurant-212.com,@restaurant.212,,"Tu-Th 18:30-21:00; Fr-Sa 12:00-13:30,18:30-21:00",52.3658779,4.9002601,2725878761
Rancho Argentina,"Reguliersbreestraat 37, 1017CM, Amsterdam",,,,,argentinian,Su-Th 11:00-23:00; Sa 11:00-23:30,52.366549,4.895202,2725879133
De Nachtwacht,"Thorbeckeplein 4-1, 1017CS, Amsterdam",,,,,steak_house,,52.3656515,4.8955056,2725879198
Bella Regina,"Vijzelstraat 41, 1017HE, Amsterdam",,https://www.bellaregina.nl/,,,,Mo-Su 12:00-24:00,52.3659389,4.8933001,2725879270
Burger Fabriek,"Reguliersbreestraat 44, 1017CN, Amsterdam",,,,,,,52.3662983,4.895425,2725879293
Senses by Lard Bertelsen,"Vijzelstraat 45, 1017HE, Amsterdam",+31 20 530 6266,https://www.sensesrestaurant.nl/,,,local,We-Sa 18:00-23:00,52.3658668,4.8932569,2725879296
Chipsy King,"Muntplein 5, 1017CK, Amsterdam",,,,,,,52.3667759,4.8935844,2725879335
Asian Kitchen,"Vijzelstraat 5A, 1017HD, Amsterdam",,,,,,,52.3665595,4.8934107,2725879622
Klein Breda,"Utrechtsestraat 6, 1017VN, Amsterdam",+31 20 362 0030,https://www.bredagroup-amsterdam.com/restaurant-kleinbreda/,info@kleinbreda-amsterdam.com,,french;dutch;international,"Mo-Su 12:00-14:30,18:00-22:00",52.3656457,4.8974539,2725879687
Pasta Factory,"Muntplein 7, 1017CK, Amsterdam",,https://pastafactoryamsterdam.nl/,,,,,52.3667398,4.8935261,2725879821
Restaurant Shiva,"Reguliersdwarsstraat 72-H, 1017BN, Amsterdam",+31 20 624 8713,https://www.shivarestaurant.nl,,,indian,Mo-Su 17:00-21:00,52.3659664,4.8935199,2725879843
Wagamama,"Amstelstraat 8, 1017DA, Amsterdam",+31 20 320 0310,https://www.wagamama.nl/restaurants/amstelstraatrembrandtplein,,,asian,Mo-Su 12:00-17:00,52.3661336,4.8983335,2725879856
Castillo,"Reguliersdwarsstraat 89-H, 1017BK, Amsterdam",+31 20 620 1975,http://castillo.amsterdam,info@castillo.amsterdam,@castillo.tapasysteaks,grill;spanish,Su-Th 16:00-00:00; Fr-Sa 14:00-00:00,52.3660845,4.8936364,2725880030
Il Primo,"Reguliersdwarsstraat 13-15, 1017BJ, Amsterdam",+31 20 331 9370,https://ilprimoristorante.nl/,info@ilprimoristorante.nl,@explore/locations/267396886/il-primo,italian,Mo-Su 11:00-00:00,52.366715,4.889753,2725913939
Garlic Queen,"Reguliersdwarsstraat 27, 1017BJ, Amsterdam",+31 20 422 6426,https://www.garlicqueen.nl/,info@garlicqueen.nl,@explore/locations/3855598,french,,52.366564,4.8901805,2725913989
Black and Blue,"Reguliersdwarsstraat 32-H, 1017BM, Amsterdam",+31 20 218 4554,https://www.restaurantblackandblue.com/,regulierdwars@restaurantblackandblue.nl,,steak_house,Mo-Th 16:00-01:00; Fr-Su 12:00-01:00,52.3662278,4.8904663,2725914010
Sichuan Food,"Reguliersdwarsstraat 35, 1017BK, Amsterdam",+31 20 626 9327,http://sichuanfood.nl,,,chinese,Mo-Su 18:00-22:00,52.3665075,4.8905627,2725914020
Maria to go,"Sint Jorisstraat 4-H, 1017BC, Amsterdam",+31 6 87695637,https://mariatogo.site123.me/,mariatogoams@gmail.com,,,Mo-Sa 10:00-21:00,52.3667087,4.8903991,2725914029
Secret Garden,"Reguliersdwarsstraat 40, 1017BM, Amsterdam",+31 20 247 4060,https://www.secretgardenamsterdam.com/,info@secretgardenamsterdam.com,@secretgarden_amsterdam,,,52.3662625,4.8911676,2725914034
Taboo Kantine,"Reguliersdwarsstraat 43-H, 1017BK, Amsterdam",+31 6 87863444,https://taboobar.nl,detabookantine@icloud.com,@detabookantine,,Mo off; Tu 16:00-22:00; We-Su 16:00-24:00,52.3664597,4.8909303,2725914053
Café Geelvink,"Reguliersdwarsstraat 57, 1017BK, Amsterdam",,https://cafegeelvink.nl,,,burger,"Mo-Th,Su 11:00-01:00; Fr-Sa 11:00-03:00",52.3663983,4.8913863,2725914340
Pianeta Terra,"Beulingstraat 7, 1017BA, Amsterdam",,https://www.pianetaterra.nl/,,,italian,,52.36802,4.887774,2725914389
Verona,"Reguliersdwarsstraat 7, 1017BJ, Amsterdam",,https://veronaristorante.nl/,,,italian,,52.3667949,4.8895319,2725914398
Bariloche,"Reguliersdwarsstraat 8, 1017BM, Amsterdam",,https://www.barilocheamsterdam.nl,,,,,52.3667544,4.8893177,2725914416
Las Estrellas,"Kerkstraat 45, 1017GB, Amsterdam",,,,,italian,Mo-Su 12:00-23:00,52.365306,4.885756,2729939216
Lombardo's,"Nieuwe Spiegelstraat 50, 1017DG, Amsterdam",,https://lombardos.nl,,,burger;sandwich,"Mo-Th,Su 12:00-21:00; Fr-Sa 12:00-22:00",52.3635469,4.8887021,2729940406
Yuzu Dining Bar,"Kerkstraat 59-H, 1017GC, Amsterdam",,https://www.yuzu-diningbar.nl,,,japanese,,52.365106,4.886092,2729941836
Los Pilones,"Kerkstraat 63-H, 1017GC, Amsterdam",,,,,mexican,,52.3649905,4.8862655,2729942317
Maya,"Korte Leidsedwarsstraat 111-H, 1017PX, Amsterdam",,http://grillsteakhousemaya.com/,,,,,52.3635382,4.8844451,2730033645
Lavash,"Korte Leidsedwarsstraat 119, 1017PZ, Amsterdam",,https://restaurantlavash.nl/,,,,,52.3632789,4.8848439,2730033915
Picchino,"Korte Leidsedwarsstraat 123-H, 1017PZ, Amsterdam",+31 6 42284481,http://picchino-amsterdam.nl/,,,pizza;pasta;italian;argentinian,Mo-Sa 13:00-22:00,52.3632077,4.8849034,2730034122
Mama Impasto,"Leidsekruisstraat 19, 1017RE, Amsterdam",,,,,,,52.3634868,4.8850062,2730035584
il Palio,"Leidsekruisstraat 23-H, 1017RE, Amsterdam",,https://pizzeriailpalio.nl/,,,italian,,52.363412,4.8849307,2730035910
Eetcafé,"Leidsekruisstraat 24, 1017RJ, Amsterdam",,https://www.eetcafekopvanjut.nl/,,,,,52.3635486,4.8848555,2730035943
Castell,"Lijnbaansgracht 254-H, 1017RK, Amsterdam",,,,,,,52.3628166,4.8848679,2730036028
Restaurant Dubbel,"Lijnbaansgracht 256, 1017RK, Amsterdam",,,,,,,52.3627171,4.8850714,2730036033
Winebar Shiraz,"Lijnbaansgracht 267-H, 1017RL, Amsterdam",,,,,,,52.3623691,4.8857879,2730036125
The Avocado Show,"Kleine-Gartmanplantsoen 28, 1017RR, Amsterdam",,,,,,Mo-Su 10:00-21:00,52.3625483,4.8835362,2730036210
The Madras Diaries,"Lange Leidsedwarsstraat 37-H, 1017NG, Amsterdam",+31 6 82815224,https://themadrasdiaries.nl/amsterdam/,,,indian,Tu-Su 11:30-21:30; Mo 17:00-21:30,52.3641223,4.8844854,2730036651
Fantasia Trattoria,"Marnixstraat 417-H, 1017PK, Amsterdam",,https://www.trattoriafantasia.nl/,,,italian,,52.3645128,4.8811616,2730036871
Poké Perfect,"Prinsengracht 502-H, 1017KH, Amsterdam",,,,,,Mo-Su 11:30-21:00,52.3638861,4.8857331,2730037424
Tacos & Tequila,"Lange Leidsedwarsstraat 75-H, 1017NH, Amsterdam",+31 6 23217594,https://tacosentequila.nl,,@tacosentequila,mexican,Su-We 12:00-22:00; Th-Sa 12:00-23:00,52.3634016,4.8855319,2730038820
Le Rendez-vous,"Weteringschans 75A, 1017RX, Amsterdam",,,,,french,,52.361421,4.8863852,2730038826
Full Moon Garden,"Leidsestraat 95, 1017NZ, Amsterdam",+31 20 238 2546,https://fullmoongarden.nl,,,chinese,12:00-01:00,52.3646327,4.883854,2730039466
Zero Zero,"Nieuwe Spiegelstraat 3A, 1017DB, Amsterdam",,https://www.zero-zero.store,,,italian;sandwich,"Mo-Fr 08:00-17:00; Sa,Su 09:00-17:00",52.3650987,4.8903573,2736376828
al Bàcaro,"Vijzelstraat 97-H, 1017HH, Amsterdam",+31 20 330 0673,http://albacaro.nl/,,,italian,,52.3632692,4.8923315,2736379838
Tia Rosa,"Reguliersgracht 11, 1017LJ, Amsterdam",,,,,tapas,,52.3642882,4.8961961,2737804840
The Healthy Spot,"Utrechtsestraat 22, 1017VN, Amsterdam",,,,,juice;soup,,52.3647084,4.8978211,2737805203
Meghna,"Utrechtsestraat 28-2, 1017VN, Amsterdam",+31 20 625 1392,https://meghna.nl,,,indian,17:00-23:00,52.3645379,4.8978962,2737805688
The Amsterdam Basement,"Utrechtsestraat 30, 1017VN, Amsterdam",,,,,,,52.3644302,4.897927,2737805764
Ace,"Utrechtsestraat 33-2, 1017VH, Amsterdam",+31 20 626 9139,https://restaurantace.nl,,,,We-Th 18:00-22:00; Fr-Sa 12:00-22:00; Su 13:00-22:00,52.3646206,4.8981005,2737805843
La Casona,"Utrechtsestraat 42A, 1017VP, Amsterdam",+31 20 7860 418,https://www.lacasonarestaurant.nl,info@lacasonarestaurant.nl,,argentinian,Mo-Su 16:00-22:00,52.36417,4.8980326,2737807388
Quartier Latin,"Utrechtsestraat 49-H, 1017VH, Amsterdam",+31 20 622 7419,https://www.restaurantquartierlatin.nl,,,french,We-Su 17:30-23:00,52.3642841,4.8982347,2737808099
Ali Ocakbaşı,"Herengracht 558, 1017CG, Amsterdam",,https://www.aliocakbasi.nl/page/amsterdam/,,,turkish,"Tu-Fr 16:00-23:00; Sa,Su 14:00-23:00",52.3648789,4.8977605,2737808490
Bistro de la Mer,"Utrechtsestraat 57-H, 1017VJ, Amsterdam",+31 20 237 4790,https://www.bistrodelamer.com/bistrodelamer,info@bistrodelamer.nl,@bistrodelamerams,fish;french,"Mo-Su 12:00-14:30,18:00-22:00",52.3641316,4.8982919,2737808629
The Lebanese Sajeria,"Utrechtsestraat 69, 1017VJ, Amsterdam",+31 20 737 1814,https://thesajeria.com,,,lebanese,Mo-Su 11:30-20:30,52.3633993,4.8985843,2737809054
Tujuh Maret,"Utrechtsestraat 73, 1017VJ, Amsterdam",,https://www.tujuhmaret.nl,admin@tujuhmaret.nl,,indonesian,Mo-Su 12:00-23:00,52.3633186,4.8986292,2737809459
Tomodachi,"Utrechtsestraat 87-H, 1017VK, Amsterdam",+31 20 785 7055,https://restaurant-tomodachi.nl,,,japanese,We-Mo 18:00-22:00,52.3630399,4.898729,2737810273
Ku Kitchen & Bar,"Utrechtsestraat 114, 1017VT, Amsterdam",,https://www.kukitchen.nl/,,,,,52.3616934,4.8989995,2737854524
Pata Negra,"Utrechtsestraat 124, 1017VT, Amsterdam",+31 20 4226250,https://pata-negra.nl,,,spanish,Mo-Su 12:00-23:30,52.3614062,4.8991054,2737854864
Golden Temple,"Utrechtsestraat 126, 1017VT, Amsterdam",+31 20 626 8560,https://restaurantgoldentemple.com,,,,Mo-Su 17:00-21:30,52.3613524,4.8991354,2737854894
Il Boccalino,"Utrechtsestraat 133-H, 1017VM, Amsterdam",,,,,,,52.3616137,4.8992797,2737855192
Bistrot des Alpes,"Utrechtsedwarsstraat 141, 1017WE, Amsterdam",+31 20 620 7393,https://www.bistrot-des-alpes.nl,,,french,Th-Su 12:00-17:00,52.3619819,4.901404,2737855495
Zoldering,"Utrechtsestraat 141-H, 1017VM, Amsterdam",+31 20 765 1212,https://www.zoldering.nl,,,,Mo-Sa 17:30-00:00,52.3613355,4.8994,2737855506
Oocker,"Frederiksplein 29-H, 1017XL, Amsterdam",,https://www.oockeramsterdam.nl,,,french;dutch,,52.3613232,4.9006044,2737857646
Bouchon du Centre,"Falckstraat 3, 1017VV, Amsterdam",,https://www.bouchonducentreamsterdam.com,,,french,We-Sa 12:00-16:00,52.3605238,4.8965314,2737858464
Bhatti Pasal,"Kerkstraat 332, 1017JA, Amsterdam",+31 20 421 0505,https://www.bhattipasal.nl/klinkers,,@bhattipasal,nepali,,52.3627238,4.8982247,2737859141
Carrousel,"H.M. van Randwijkplantsoen 1, 1017ZW, Amsterdam",+31 20 625 8002,https://www.decarrouselpannenkoeken.nl,,,pancake,Mo-Fr 10:00-19:00; Sa-Su 10:00-20:00,52.3589849,4.891748,2737942406
Myrabelle,"Vijzelgracht 1, 1017HM, Amsterdam",,https://www.myrabelle.nl/,,,,Mo 16:00-22:00; Tu-We 12:00-24:00; Th-Sa 12:00-01:00; Su 12:00-22:00,52.3619155,4.8918915,2737942462
Piet de Leeuw,"Noorderstraat 11-H, 1017TR, Amsterdam",+31 20 623 7181,https://www.pietdeleeuw.nl,,,steak_house,Mo-Su 17:00-22:30,52.361512,4.8921422,2737943368
Uliveto,"Weteringschans 118-H, 1017XT, Amsterdam",,https://www.uliveto.net/,,,,,52.3592187,4.8961788,2737943775
Sizz,"Weteringschans 187C-H, 1017XE, Amsterdam",+31 20 737 3450,https://sizzrestaurant.nl,,@sizzamsterdam,indian,"Mo,We-Th,Su 16:30-22:30; Tu off; Fr-Sa 17:00-23:00",52.359611,4.89315,2737949139
NK Thai Noodles,"Weteringschans 187D-H, 1017XE, Amsterdam",+31 20 777 0154,https://nkthainoodles.nl,info@nkthainoodles.nl,,thai,Mo-Sa 12:00-22:00; Su off,52.3596072,4.8932216,2737949191
Sukhothai Thanee,"Noorderstraat 19-H, 1017TR, Amsterdam",+31 20 786 6419,https://sukhothaithanee.nl,,,thai,Th-Mo 17:30-22:00,52.3614727,4.8924177,2737949599
Proper. Indofood,"Vijzelgracht 20, 1017HP, Amsterdam",+31 6 45516274,https://properindofood.com,,,indonesian,Tu-Su 15:30-20:30,52.3608693,4.8909089,2737959904
Levant,"Weteringschans 93-H, 1017RZ, Amsterdam",,,,,turkish,,52.361025,4.8873509,2737973452
REM-eiland,"Haparandadam 45, 1013AK, Amsterdam",+31 20 244 5794,https://rem.amsterdam/,,,,We-Sa 16:00-01:00,52.398693,4.8833259,2738401566
MOAK,"Jodenbreestraat 146H, 1011NS, Amsterdam",,https://www.moakpancakes.nl/,,@moakpancakes,,08:30-15:30,52.3687268,4.9027985,2741065352
Lunchcafé Waterloo,"Waterlooplein 181, 1011PG, Amsterdam",,https://www.cafewaterloo.nl,,,,Mo-Sa 07:00-20:30; Su 09:00-18:00,52.3683641,4.9026509,2741065837
Olijfje,"Valkenburgerstraat 223D, 1011MJ, Amsterdam",,https://www.restaurantolijfje.nl,,,mediterranean,Mo-Su 10:00-23:30,52.3688372,4.905523,2741066321
Kilimanjaro,"Rapenburgerplein 6-H, 1011VB, Amsterdam",,https://restaurantkilimanjaro.info/,,,ethiopian,,52.3703339,4.9108124,2741083656
Eetkunst Asmara,"Jonas Daniël Meijerplein 8, 1011RH, Amsterdam",+31 20 627 1002,,,,ethiopian;eritrean,,52.3668917,4.904228,2741083792
Pastini,"Leidsegracht 29, 1017NB, Amsterdam",+31 20 622 1701,https://www.pastini.nl/,,@restaurant_pastini,italian,,52.3666231,4.8846668,2742363294
Amstelhaven,"Mauritskade 1, 1091EW, Amsterdam",,https://amstelhaven.nl/,,@amstelhaven,,,52.3593222,4.9059692,2742800502
Amstel Restaurant,"Prof. Tulpplein 1, 1018GX, Amsterdam",+31 20 622 6060,https://www.amstelhotel.com/nl/restaurant-bar/amstel-restaurant/,restaurant.reservations@ihg.com,,,Mo-Su 12:30-22:00,52.3599843,4.9052427,2742800531
Baret,"Korte Amstelstraat 18, 1018XS, Amsterdam",+31 20 622 5602,https://www.bistrobaret.nl/,info@bistrobaret.nl,@bistrobaret,,,52.3617263,4.9048274,2742805645
Cantina Caliente,"Roetersstraat 192, 1018WE, Amsterdam",+31 6 11283215,https://calientefood.nl/cantina/,info@calientefood.nl,@caliente_food,spanish,Su-Th 12:00-23:00; Fr-Sa 12:00-00:00,52.3623528,4.9108398,2742805862
Bar/Brasserie Lempicka,"Sarphatistraat 23, 1018EV, Amsterdam",+31 20 622 0209,https://barlempicka.com/,info@barlempicka.com,@barlempicka,,Su-Th 09:00-01:00; Fr-Sa 09:00-03:00,52.360702,4.9049119,2742806489
Box Sociaal,"Plantage Middenlaan 30A-H, 1018DG, Amsterdam",+31 20 280 5578,https://boxsociaal.com,,,,Mo-Su 09:00-23:00,52.3662119,4.9119285,2742862966
Bertus,"Alexanderplein 6, 1018CG, Amsterdam",,,,,regional,"Mo,We-Fr 08:00-17:00; Sa,Su 09:00-18:00",52.363254,4.9192079,2742863731
Amsterdam City Farm,"Czaar Peterstraat 171E, 1018PJ, Amsterdam",,https://www.amsterdamcityfarm.com/restaurant,,,,,52.3711994,4.9309585,2743194030
d&a hummus bistro,"Oostenburgergracht 185, 1018ND, Amsterdam",+31 20 737 1676,https://dna-hummusbistro.com/,,,,Mo-Su 10:00-22:00,52.3679133,4.9253769,2743194450
Instock Amsterdam,"Czaar Peterstraat 21, 1018NW, Amsterdam",+31 20 363 5765,https://www.instock.nl/restaurant-amsterdam,amsterdam@instock.nl,,international,Mo-Su 08:30-23:00,52.3686253,4.9265127,2743194721
Al Dente Pasta Lab,"Zeeburgerstraat 2-2, 1018AG, Amsterdam",,,,,,,52.3667954,4.9251367,2743279705
Sotto Pizzeria,"Kadijksplein 4, 1018AB, Amsterdam",+31 20 773 3120,https://www.sottopizza.nl/,,@explore/locations/57229783/sotto-pizza-legale,pizza,Mo-Th 17:00-22:00; Fr-Su 17:00-23:00,52.3700326,4.9119173,2743544698
Ben Cohen,"Rozengracht 239-H, 1016SX, Amsterdam",+31 20 7058 171,https://bencohenstreetfood.com/,info@bencohenstreetfood.com,,jewish,Tu-Th 17:00-01:00; Fr-Sa 12:00-02:00; Su 12:00-01:00,52.3719454,4.8754645,2743624128
Gaja Korean BBQ & Bar,"Oosterdokskade 145, 1011DL, Amsterdam",,https://gajabbq.com,info@gajabbq.com,,korean,"Mo-Su 16:30-22:30 open ""Restaurant and Bar"" || Su-We 12:30-23:00 open ""Bar"" || Th-Sa 12:00-00:00 open ""Bar""",52.3757981,4.9085513,2743728707
De Pelikaan,"Nieuwemeerdijk 447, 1171PA, Badhoevedorp",,https://pelikaan-badhoevedorp.nl/,,,regional,,52.317651,4.8164825,2744879347
Wings food & drinks,"Stationsplein-ZW 602, 1117CN, Schiphol",,http://www.wings-schiphol.nl,,,regional,Mo-Fr 11:00-21:00; Sa 15:30-21:00,52.3094461,4.8098512,2745225513
MOS,"IJdok 185, 1013MM, Amsterdam",+31 20 638 0866,https://www.mosamsterdam.nl/,,,french,"Tu-We 18:00-22:00; Th-Sa 12:00-16:00,18:00-22:00",52.3837962,4.8955025,2745434808
Tasca Bellota,"Bickerswerf 2, 1013KX, Amsterdam",,https://tascabellota.nl,,,spanish,,52.3855288,4.8901844,2745489862
Boss Kitchen,"Bosbaanweg 7, 1182DA, Amstelveen",,,,,,,52.3272943,4.8556421,2781425518
Santa Maria,"Amsterdamseweg 448, 1181BW, Amstelveen",,https://www.santamaria-amstelveen.nl/,,,italian,,52.3169007,4.8573225,2781452305
Atchaya,"Amsterdamseweg 503, 1181BS, Amstelveen",,https://www.atchayarestaurantamstelveen.nl,,,indian,,52.3200076,4.8571313,2781452703
Diwali Palace,"Amsterdamseweg 114, 1182HH, Amstelveen",,https://www.diwalipalace.nl,,,indian,,52.3088324,4.8470631,2783660143
Freud,"Spaarndammerstraat 424, 1013SZ, Amsterdam",,https://restaurantfreud.nl,,,,,52.3883897,4.8804316,2788129031
Morris & Bella,"Nova Zemblastraat 586, 1013RP, Amsterdam",+31 20 475 2046,https://morrisenbella.nl/,,,,We-Su 17:30-01:00,52.3909061,4.8785934,2788130173
Renato’s,"Spaarndammerstraat 772, 1013TJ, Amsterdam",,,,,italian,,52.3906201,4.8786726,2788131374
Thaise Afhaal Dong Son,"Spaarndammerstraat 145A, 1013TG, Amsterdam",+31 20 686 9727,https://thaisafhaalrestaurantdongson.nl/,,,asian;thai,15:00-22:00; We closed,52.3913434,4.8779745,2788280767
Orient kitchen,"Spaarndammerstraat 35-H, 1013SR, Amsterdam",,,,,,"Tu-Su 16:15-21:30; Mo,PH off",52.3886847,4.8797947,2788284179
De Pizzabakkers,"Spaarndammerstraat 51-H, 1013ST, Amsterdam",,https://www.depizzabakkers.nl/vestigingen/amsterdam-spaarndammer/,,,pizza,,52.3890075,4.8795317,2788284876
yayang gezonder & bijzonder,"Spaarndammerstraat 91A, 1013TC, Amsterdam",,https://www.yayang.nl,,,asian,Tu-Su 16:00-20:00,52.3899734,4.8787535,2788286092
Bar Cocovin,"Pazzanistraat 10, 1014DB, Amsterdam",+31 6 86459916,https://barcocovin.nl,,@bar_cocovin,,"We,Th 12:00-24:00, Su 12:00-24:00, Fr,Sa 12:00-01:00",52.3863242,4.8724644,2788448929
Mossel & Gin,"Gosschalklaan 12, 1014DC, Amsterdam",+31 20 486 5869,https://www.mosselengin.nl/,,,,"Tu-Fr 17:00-23:00; Sa,Su 13:00-23:00; Mo off",52.3864397,4.8680564,2788448978
Smelt,"Gosschalklaan 7, 1014DC, Amsterdam",,https://restaurantsmelt.nl/westerpark/,,@restaurantsmelt,fondue,Sep-Feb Mo-Fr 17:30-23:30; Sep-Feb Sa-Su 12:00-23:30; PH off,52.386405,4.8724635,2788449211
Cantine de Caron,"Pazzanistraat 8, 1014DB, Amsterdam",+31 20 225 0059,https://cantinedecaron.nl,,@cantine_de_caron,french,"Mo-Su 12:00-17:00,18:00-22:00+",52.3862897,4.8728174,2788449246
Havzan,"Burgemeester De Vlugtlaan 97, 1063BJ, Amsterdam",+31 20 3583605,https://havzanrestaurant.nl,info@havzanrestaurant.nl,,turkish,Mo-Su 14:00-23:00,52.3798934,4.8297709,2793730741
Shandiez Persian Restaurant,"Johan Huizingalaan 142, 1065JG, Amsterdam",,https://shandiez.nl/,,,persian,,52.3596296,4.8267224,2795079568
Steiger 4,"Christoffel Plantijngracht 4, 1065DA, Amsterdam",,https://www.boothuis.amsterdam,hello@boothuis.amsterdam,,italian_pizza,We-Su 10:00-23:00,52.360322,4.8158962,2795082564
Aries Noodles,"Koningin Wilhelminaplein 58, 1062KS, Amsterdam",+31 20 669 9810,https://www.ariesnoodles.nl,,,indonesian,Tu-Sa 12:00-20:00; Su 12:00-18:00,52.3535631,4.8401983,2795374703
Limon Cigkofte & Poke Bowl,"Pieter Calandlaan 140, 1068NR, Amsterdam",+31 20 331 9245,https://limonpoke.nl,,,,,52.3546903,4.8106971,2795482269
I Love Tantuni,"Pieter Calandlaan 144, 1068NR, Amsterdam",+31 20 737 1143,,,,turkish,,52.3547546,4.8109898,2795482288
Kwun Wah,"Osdorper Ban 30, 1068MH, Amsterdam",+31 20 619 0141,https://www.kwunwah.nl,info@kwunwah.nl,,chinese,We-Mo 15:30-22:00,52.3625817,4.8015803,2797077884
Ons Dorpje,"Tussen Meer 55, 1068EZ, Amsterdam",+31 20 331 1956,https://onsdorpje.nl,info@restaurantonsdorpje.nl,,moroccan,Mo-Su 11:00-23:00,52.3584235,4.8022077,2797096161
Ravioli's,"Tussen Meer 61, 1068EZ, Amsterdam",+31 20 239 4196,https://raviolis.nl,info@raviolis.nl,@Raviolisamsterdam,italian,Th-Tu 16:00-22:00,52.3583221,4.8016953,2797097679
Sahan,"Tussen Meer 66, 1068GC, Amsterdam",+31 20 334 3286,https://restaurantsahan.nl,info@sahanamsterdam.nl,@SahanAmsterdam,turkish,Mo-Su 12:00-22:30,52.3584044,4.8001675,2797097924
Surinaams Eethuis Rose,"Osdorpplein 693, 1068TC, Amsterdam",+31 20 358 6038,,,,surinamese,,52.3592706,4.8060126,2797098339
LemonGrass,"Stationsstraat 3, 1182JM, Amstelveen",,https://www.restaurantlemongrass.nl/,,,indonesian,,52.3016786,4.8464429,2806912189
Shouryuu Izakaya,"Keizer Karelweg 337, 1181RE, Amstelveen",,https://www.shouryuu.nl/,,,japanese,,52.3074968,4.8562351,2806914523
De Poelier,"Stationsstraat 7, 1182JM, Amstelveen",,https://www.restaurant-depoelier.nl/,,,,,52.3016207,4.8466854,2806918814
Gusto World of Pizza,"Dorpsstraat 84, 1182JG, Amstelveen",,https://www.facebook.com/gustoworldofpizza,,,pizza,,52.3014671,4.8463429,2806919228
Damso,"Dorpsstraat 88, 1182JG, Amstelveen",,https://damsokorean.foodticket.nl/,,,korean,,52.3013656,4.8463217,2806919508
R Haan Thai Thai,"Rembrandtweg 687, 1181GV, Amstelveen",,https://www.r-haan-thaithai.nl/,,,thai,,52.3149183,4.8637355,2807131120
Pakwaan,"Rembrandtweg 689, 1181GV, Amstelveen",,https://pakwaan.nl/,,,indian,,52.3147043,4.8632973,2807131122
Kasturi,"Kostverlorenhof 62, 1183HG, Amstelveen",,https://kasturi.nl/,,,indian,,52.3132745,4.8756343,2807254041
Nagomi,"Kostverlorenhof 67, 1183HG, Amstelveen",,https://nagomirestaurant.jouwweb.nl/,,,japanese,,52.3130132,4.8757622,2807254443
Tokyo Ramen Takeichi,"Stadsplein 18, 1181ZM, Amstelveen",+31 20 4415244,https://takeichi-ramen.eu/locations/the-netherlands/stadsplein-18-amstelveen,info@takeichi-ramen.eu,@tokyoramentakeichi.nl,ramen,Mo-Su 12:00-21:00,52.3028626,4.8608594,2807374626
Kokusai,"Stadstuinen 2, 1181VT, Amstelveen",,https://restaurantkokusai.nl/,,,japanese,,52.3018157,4.866451,2807374999
Day Foodbar Amstelveen,"Stadsplein 52, 1181ZM, Amstelveen",,https://dayfoodbar.nl/,,,italian,"Mo-Th,Su 12:00 - 22:00; Fr-Sa 12:00 - 23:00",52.3027031,4.8610138,2807394081
Dixie,"Stadsplein 54, 1181ZM, Amstelveen",+31 20 640 3004,https://www.dixie-amstelveen.nl,,,,Mo-Tu 15:00-01:00; Fr 12:00-02:00; Sa 12:00-02:00; Su 15:00-01:00,52.3026081,4.8609475,2807394836
Royal Fook Long,"Belgiëplein 83, 1066RC, Amsterdam",,,,,asian;sushi;ramen,,52.345403,4.8103054,2808017509
Buenos Aires,"Dorpsstraat 23, 1182JA, Amstelveen",,https://baires.nl,,,argentinian,,52.3028319,4.8464282,2808262428
Villa Borghese,"Laan Nieuwer-Amstel 25, 1182JR, Amstelveen",,https://www.villa-borghese.nl/,,,italian,,52.3023396,4.8443865,2808262478
Paviljoen Aquarius,"Anton Schleperspad 10, 1066BV, Amsterdam",,http://www.paviljoenaquarius.nl,,,,,52.3347833,4.8146236,2808469790
The Chicken Factory,"Bos en Lommerweg 244, 1055EJ, Amsterdam",,,,,kebab;chicken,,52.3785301,4.8478376,2808531270
Hap Li,"Admiraal De Ruijterweg 450-H, 1055NG, Amsterdam",+31 20 686 7893,https://hapli-restaurant.com,info@hapli-restaurant.com,,chinese;surinamese,"Mo-Tu,Th-Su 12:00-21:30",52.3840419,4.8482999,2808541160
Eetwinkel Buurman & Buurman,"Mercatorstraat 171, 1056RE, Amsterdam",,https://buurman-amsterdam.pizza/,,,,Mo-Su 17:00-21:00,52.3753416,4.848317,2808739855
Lupe,"Willem de Zwijgerlaan 333, 1055RB, Amsterdam",+31 6 27963339,https://www.lupemexmex.com/,lupemexmex@gmail.com,,mexican,We-Fr 17:00-22:00; Sa 12:00-22:00; Su 12:00-15:00,52.381963,4.85771,2808856766
Paviljoen van Beuningen,"Van Beuningenplein 21, 1051VS, Amsterdam",,,,,,,52.3811732,4.8701596,2808940913
k-sushi,"Van Hallstraat 222, 1051HL, Amsterdam",,https://www.ksushi.nl/,,,japanese,,52.3795323,4.8710599,2808941415
knock knock bakery,"Van Hallstraat 252, 1051HL, Amsterdam",,,,@knockknock_bakery,bakery,Th-Su 08:00-16:00,52.3794525,4.8713105,2808941592
Sababa,"Van Hallstraat 270, 1051HM, Amsterdam",+31 20 363 6131,https://sababa.nu/,,,middle_eastern,,52.3793456,4.8715174,2808942701
Pendergast,"Groen van Prinstererstraat 14, 1051EE, Amsterdam",,,,,,"Fr,Sa 17:00-23:00; We,Th,Su 17:00-22:00; Mo,Tu off",52.3847557,4.8714104,2808992310
