[
  {
    "name": "De Roode Leeuw",
    "address": "Damrak 93, 1012LP, Amsterdam",
    "phone": "",
    "website": "https://www.brasseriederoodeleeuw.nl/",
    "email": "",
    "instagram": "",
    "cuisine": "",
    "opening_hours": "",
    "lat": 52.3737595,
    "lon": 4.8936095,
    "osm_id": 34044093
  },
  {
    "name": "Turbo",
    "address": "Amsterdam",
    "phone": "",
    "website": "",
    "email": "",
    "instagram": "",
    "cuisine": "",
    "opening_hours": "",
    "lat": 52.3606446,
    "lon": 4.925313,
    "osm_id": 94829656
  },
  {
    "name": "Meram",
    "address": "Pretoriusstraat 22-H, 1092GG, Amsterdam",
    "phone": "+31 20 3626420",
    "website": "https://meram.nl/",
    "email": "",
    "instagram": "",
    "cuisine": "turkish",
    "opening_hours": "",
    "lat": 52.3560114,
    "lon": 4.9255949,
    "osm_id": 95288389
  },
  {
    "name": "Café Maxwell",
    "address": "Beukenplein 27, 1092BB, Amsterdam",
    "phone": "+31 20 772 6748",
    "website": "https://www.maxwellcafe.nl/nl/home",
    "email": "info@maxwellcafe.nl",
    "instagram": "@cafe_maxwell",
    "cuisine": "international",
    "opening_hours": "Su-We 11:00-00:00; Fr-Sa 11:00-02:00; Th 11:00-01:00",
    "lat": 52.3568021,
    "lon": 4.9186525,
    "osm_id": 95288416
  },
  {
    "name": "ThaiCoon",
    "address": "Beukenplein 10, 1091KG, Amsterdam",
    "phone": "+31 20 362 3302",
    "website": "https://thaicoon.nl/amsterdam.html",
    "email": "",
    "instagram": "",
    "cuisine": "thai",
    "opening_hours": "Mo-Su 15:00-00:00",
    "lat": 52.3571368,
    "lon": 4.9176581,
    "osm_id": 95288419
  },
  {
    "name": "Mojo",
    "address": "Amsterdam",
    "phone": "+31 20 233 1367",
    "website": "",
    "email": "",
    "instagram": "",
    "cuisine": "",
    "opening_hours": "Mo-Su 11:00-01:00",
    "lat": 52.3547935,
    "lon": 4.9281192,
    "osm_id": 95288421
  },
  {
    "name": "La Vallade",
    "address": "Amsterdam",
    "phone": "",
    "website": "",
    "email": "",
    "instagram": "",
    "cuisine": "",
    "opening_hours": "Mo-Su 17:30-21:00",
    "lat": 52.3542383,
    "lon": 4.9269508,
    "osm_id": 95288423
  },
  {
    "name": "Café-Restaurant Dauphine",
    "address": "Prins Bernhardplein 175, 1097BL, Amsterdam",
    "phone": "",
    "website": "https://caferestaurantdauphine.nl",
    "email": "",
    "instagram": "",
    "cuisine": "",
    "opening_hours": "Mo-Fr 11:00-01:00; Sa-Su 12:00 - 01:00",
    "lat": 52.3483698,
    "lon": 4.9173053,
    "osm_id": 95288426
  },
  {
    "name": "Volt",
    "address": "Ferdinand Bolstraat 178, 1072LT, Amsterdam",
    "phone": "+31 20 471 5544",
    "website": "https://www.restaurantvolt.nl",
    "email": "",
    "instagram": "",
    "cuisine": "french",
    "opening_hours": "",
    "lat": 52.3514961,
    "lon": 4.8911767,
    "osm_id": 249327304
  },
  {
    "name": "En Japanese kitchen & Sake bar",
    "address": "Amsterdam",
    "phone": "",
    "website": "",
    "email": "",
    "instagram": "",
    "cuisine": "japanese",
    "opening_hours": "",
    "lat": 52.3511266,
    "lon": 4.8895103,
    "osm_id": 249327899
  },
  {
    "name": "Utage Sake Bar",
    "address": "Lekstraat 11, 1079EK, Amsterdam",
    "phone": "",
    "website": "https://www.utage-sakebar.nl",
    "email": "",
    "instagram": "",
    "cuisine": "japanese",
    "opening_hours": "Tu-Sa 17:00-23:00",
    "lat": 52.3451944,
    "lon": 4.9082519,
    "osm_id": 249401845
  },
  {
    "name": "Kong Kha",
    "address": "Rijnstraat 87, 1079GZ, Amsterdam",
    "phone": "+31 20 661 2578",
    "website": "",
    "email": "",
    "instagram": "",
    "cuisine": "chinese",
    "opening_hours": "",
    "lat": 52.3452521,
    "lon": 4.9058841,
    "osm_id": 249406236
  },
  {
    "name": "I Trulli",
    "address": "Rijnstraat 101, 1079HA, Amsterdam",
    "phone": "",
    "website": "",
    "email": "",
    "instagram": "",
    "cuisine": "italian",
    "opening_hours": "",
    "lat": 52.3445658,
    "lon": 4.9061298,
    "osm_id": 249406237
  },
  {
    "name": "Pizzeria San Marco",
    "address": "Amstelkade 148A, 1078AW, Amsterdam",
    "phone": "",
    "website": "",
    "email": "",
    "instagram": "",
    "cuisine": "italian",
    "opening_hours": "",
    "lat": 52.3481204,
    "lon": 4.8909926,
    "osm_id": 249442603
  },
  {
    "name": "Kong Ming",
    "address": "Rijnstraat 67, 1079GW, Amsterdam",
    "phone": "",
    "website": "",
    "email": "",
    "instagram": "",
    "cuisine": "chinese",
    "opening_hours": "",
    "lat": 52.3457496,
    "lon": 4.9057054,
    "osm_id": 249443116
  },
  {
    "name": "Papa",
    "address": "Amsterdam",
    "phone": "",
    "website": "",
    "email": "",
    "instagram": "",
    "cuisine": "",
    "opening_hours": "",
    "lat": 52.3482353,
    "lon": 4.9047332,
    "osm_id": 249628961
  },
  {
    "name": "Phukradung",
    "address": "Amsterdam",
    "phone": "",
    "website": "",
    "email": "",
    "instagram": "",
    "cuisine": "",
    "opening_hours": "",
    "lat": 52.3514674,
    "lon": 4.9034904,
    "osm_id": 249628962
  },
  {
    "name": "Frango",
    "address": "Amsterdam",
    "phone": "",
    "website": "",
    "email": "",
    "instagram": "",
    "cuisine": "",
    "opening_hours": "",
    "lat": 52.353296,
    "lon": 4.9027669,
    "osm_id": 249628963
  },
  {
    "name": "Kam Kee",
    "address": "Ceintuurbaan 119, 1072EZ, Amsterdam",
    "phone": "",
    "website": "",
    "email": "",
    "instagram": "",
    "cuisine": "chinese",
    "opening_hours": "",
    "lat": 52.3531295,
    "lon": 4.892503,
    "osm_id": 249628974
  },
  {
    "name": "Vermeer",
    "address": "Prins Hendrikkade 59-72, 1021AD, Amsterdam",
    "phone": "+31 20 556 4885",
    "website": "https://www.restaurantvermeer.nl/",
    "email": "info@restaurantvermeer.nl",
    "instagram": "@restaurantvermeer",
    "cuisine": "",
    "opening_hours": "We-Sa 18:00-20:30",
    "lat": 52.3764859,
    "lon": 4.9004724,
    "osm_id": 251127910
  },
  {
    "name": "Bravi Ragazzi",
    "address": "Amsterdam",
    "phone": "",
    "website": "",
    "email": "",
    "instagram": "",
    "cuisine": "",
    "opening_hours": "",
    "lat": 52.3759544,
    "lon": 4.8963754,
    "osm_id": 251147176
  },
  {
    "name": "Sweet Asia",
    "address": "Amsterdam",
    "phone": "",
    "website": "",
    "email": "",
    "instagram": "",
    "cuisine": "",
    "opening_hours": "Mo,Tu,Th-Sa 12:30-21:30; Su 13:00-21:30",
    "lat": 52.3631785,
    "lon": 4.9290605,
    "osm_id": 251150887
  },
  {
    "name": "Nam Kee",
    "address": "Geldersekade 117, 1011EN, Amsterdam",
    "phone": "+31 20 639 2848",
    "website": "https://namkee.nl/",
    "email": "",
    "instagram": "",
    "cuisine": "chinese;cantonese",
    "opening_hours": "Mo-Fr 16:00-23:30; Sa 14:30-23:30; Su 14:30-23:30",
    "lat": 52.372991,
    "lon": 4.9011953,
    "osm_id": 251165503
  },
  {
    "name": "Song Kwae",
    "address": "Kloveniersburgwal 14, 1012CT, Amsterdam",
    "phone": "",
    "website": "https://www.songkwae.nl",
    "email": "",
    "instagram": "",
    "cuisine": "thai",
    "opening_hours": "",
    "lat": 52.371915,
    "lon": 4.8991163,
    "osm_id": 251168505
  },
  {
    "name": "A Fusion",
    "address": "Amsterdam",
    "phone": "",
    "website": "",
    "email": "",
    "instagram": "",
    "cuisine": "",
    "opening_hours": "Mo-Th 16:00-22:30; Fr,Sa 12:00-23:15; Su 12:00-22:30",
    "lat": 52.3732425,
    "lon": 4.9001515,
    "osm_id": 251177425
  },
  {
    "name": "Nam Kee",
    "address": "Zeedijk 111-113, 1012AV, Amsterdam",
    "phone": "+31 20 624 3470",
    "website": "http://www.namkee.nl/",
    "email": "",
    "instagram": "",
    "cuisine": "chinese;cantonese",
    "opening_hours": "Sun-Th 12:00-21:30; Fr-Sa 12:00-22:00",
    "lat": 52.3737013,
    "lon": 4.9003096,
    "osm_id": 251177427
  },
  {
    "name": "Ristorante Italiano Piccolo Mondo",
    "address": "Amsterdam",
    "phone": "",
    "website": "",
    "email": "",
    "instagram": "",
    "cuisine": "",
    "opening_hours": "",
    "lat": 52.3740711,
    "lon": 4.9017078,
    "osm_id": 251177433
  },
  {
    "name": "El Torado Grill",
    "address": "Reguliersbreestraat 25, 1017CL, Amsterdam",
    "phone": "+31 20 625 6600",
    "website": "https://eltorado.com/",
    "email": "",
    "instagram": "",
    "cuisine": "argentinian;steak_house;burger",
    "opening_hours": "Mo-Su 12:00-00:00",
    "lat": 52.3666908,
    "lon": 4.8947159,
    "osm_id": 251528277
  },
  {
    "name": "De Jaren",
    "address": "Nieuwe Doelenstraat 20, 1012CP, Amsterdam",
    "phone": "",
    "website": "https://www.cafedejaren.nl",
    "email": "",
    "instagram": "",
    "cuisine": "",
    "opening_hours": "Mo-Su 09:00-23:00",
    "lat": 52.3680595,
    "lon": 4.8953468,
    "osm_id": 251823631
  },
  {
    "name": "de Kluis",
    "address": "Amsterdam",
    "phone": "",
    "website": "",
    "email": "",
    "instagram": "",
    "cuisine": "",
    "opening_hours": "",
    "lat": 52.371134,
    "lon": 4.9117046,
    "osm_id": 252143918
  },
  {
    "name": "The Grasshopper",
    "address": "Oudebrugsteeg 16, 1012JP, Amsterdam",
    "phone": "+31 20 626 1259",
    "website": "https://www.thegrasshopper.nl",
    "email": "",
    "instagram": "",
    "cuisine": "",
    "opening_hours": "",
    "lat": 52.3754583,
    "lon": 4.8974337,
    "osm_id": 254039664
  },
  {
    "name": "Java kitchen",
    "address": "Amsterdam",
    "phone": "",
    "website": "",
    "email": "",
    "instagram": "",
    "cuisine": "",
    "opening_hours": "",
    "lat": 52.3526542,
    "lon": 4.8889175,
    "osm_id": 257441614
  },
  {
    "name": "Goldcoast",
    "address": "De corridor 2, 1101BD, Amsterdam",
    "phone": "+31 20 567 2444",
    "website": "https://goldcoast-restaurant.nl/",
    "email": "",
    "instagram": "",
    "cuisine": "",
    "opening_hours": "",
    "lat": 52.3113257,
    "lon": 4.9450524,
    "osm_id": 263005477
  },
  {
    "name": "Café-Restaurant Amsterdam",
    "address": "Watertorenplein 6, 1051PA, Amsterdam",
    "phone": "+31 20 682 2666",
    "website": "https://cradam.nl",
    "email": "",
    "instagram": "",
    "cuisine": "",
    "opening_hours": "Mo-Th,Su 10:30-00:00; Fr-Sa 10:30-01:00",
    "lat": 52.3842205,
    "lon": 4.8682145,
    "osm_id": 283241256
  },
  {
    "name": "Het Dorp",
    "address": "Noordwal 1, 1021PX, Amsterdam",
    "phone": "",
    "website": "https://www.hetdorp.amsterdam/",
    "email": "info@hetdorp.amsterdam",
    "instagram": "@hetdorp.amsterdam",
    "cuisine": "",
    "opening_hours": "Th 16:00-24:00; Fr 16:00-01:00; Sa 14:00-01:00; Su 14:00-22:00",
    "lat": 52.3811001,
    "lon": 4.9128268,
    "osm_id": 287295070
  },
  {
    "name": "Cedars",
    "address": "Heemstedestraat 80, 1058NP, Amsterdam",
    "phone": "",
    "website": "https://www.cedars.nl",
    "email": "",
    "instagram": "",
    "cuisine": "lebanese",
    "opening_hours": "Mo-Th 16:00-23:00; Fr 16:00-00:00; Sa 12:00-00:00; Su 12:00-23:00",
    "lat": 52.3519506,
    "lon": 4.8444223,
    "osm_id": 287760322
  },
  {
    "name": "Harbour Club Café",
    "address": "Olympisch Stadion 35, 1076DE, Amsterdam",
    "phone": "",
    "website": "https://theharbourclub.com/cafe-amsterdam",
    "email": "",
    "instagram": "",
    "cuisine": "",
    "opening_hours": "",
    "lat": 52.3424865,
    "lon": 4.854536,
    "osm_id": 302309462
  },
  {
    "name": "Il Forno",
    "address": "Amsterdam",
    "phone": "",
    "website": "",
    "email": "",
    "instagram": "",
    "cuisine": "",
    "opening_hours": "Mo-Su 16:30-23:30",
    "lat": 52.3689909,
    "lon": 4.9217898,
    "osm_id": 304076330
  },
  {
    "name": "Waaghals",
    "address": "Amsterdam",
    "phone": "+31 20 679 9609",
    "website": "https://waaghals.nl/",
    "email": "",
    "instagram": "",
    "cuisine": "",
    "opening_hours": "",
    "lat": 52.3571286,
    "lon": 4.889014,
    "osm_id": 305076371
  },
  {
    "name": "Kikkie",
    "address": "Prinsenstraat 30-H, 1015DD, Amsterdam",
    "phone": "+31 20 224 6022",
    "website": "https://www.kikkie.amsterdam/",
    "email": "",
    "instagram": "",
    "cuisine": "",
    "opening_hours": "Mo-Th 12:00-24:00, Fr 12:00-02:00, Sa 11:00-02:00, Su 12:00-22:00",
    "lat": 52.3780177,
    "lon": 4.8865655,
    "osm_id": 312068096
  },
  {
    "name": "Bridges",
    "address": "Oudezijds Voorburgwal 197, 1012EX, Amsterdam",
    "phone": "",
    "website": "https://bridgesrestaurant.nl",
    "email": "",
    "instagram": "",
    "cuisine": "",
    "opening_hours": "Th,Fr 12:00-15:00, Sa,Su 13:00-15:00, Mo-Su 18:30-21:00",
    "lat": 52.3709275,
    "lon": 4.895255,
    "osm_id": 318453914
  },
  {
    "name": "Indian Spices & Vibes",
    "address": "Ferdinand Bolstraat 172, 1072LT, Amsterdam",
    "phone": "",
    "website": "https://indianspicesandvibes.nl/",
    "email": "",
    "instagram": "",
    "cuisine": "indian",
    "opening_hours": "",
    "lat": 52.3516358,
    "lon": 4.8911783,
    "osm_id": 332598830
  },
  {
    "name": "Desa",
    "address": "Ceintuurbaan 103, 1072EX, Amsterdam",
    "phone": "",
    "website": "",
    "email": "",
    "instagram": "",
    "cuisine": "indonesian",
    "opening_hours": "",
    "lat": 52.3530404,
    "lon": 4.8918487,
    "osm_id": 332642297
  },
  {
    "name": "Pizza Taxi Da Paolo & Seba",
    "address": "Ceintuurbaan 121, 1072GA, Amsterdam",
    "phone": "",
    "website": "",
    "email": "",
    "instagram": "",
    "cuisine": "pizza",
    "opening_hours": "",
    "lat": 52.3531385,
    "lon": 4.8925821,
    "osm_id": 332642301
  },
  {
    "name": "Toko Talaad Thai",
    "address": "Sarphatipark 18, 1072PA, Amsterdam",
    "phone": "",
    "website": "",
    "email": "",
    "instagram": "",
    "cuisine": "thai",
    "opening_hours": "",
    "lat": 52.3540322,
    "lon": 4.8938587,
    "osm_id": 332661073
  },
  {
    "name": "Ladybird Fried Chicken",
    "address": "Sarphatipark 4-H, 1072PA, Amsterdam",
    "phone": "",
    "website": "https://www.ladybirdfriedchicken.com/",
    "email": "",
    "instagram": "",
    "cuisine": "",
    "opening_hours": "",
    "lat": 52.3543439,
    "lon": 4.8936555,
    "osm_id": 332661074
  },
  {
    "name": "Samba Kitchen",
    "address": "Amsterdam",
    "phone": "",
    "website": "https://www.samba-kitchen.nl/",
    "email": "",
    "instagram": "",
    "cuisine": "brazilian",
    "opening_hours": "",
    "lat": 52.3527351,
    "lon": 4.8895939,
    "osm_id": 332689457
  },
  {
    "name": "Thai Deum",
    "address": "Amsterdam",
    "phone": "",
    "website": "https://www.thaideum.com/",
    "email": "",
    "instagram": "",
    "cuisine": "thai",
    "opening_hours": "",
    "lat": 52.3522054,
    "lon": 4.8878941,
    "osm_id": 332994756
  },
  {
    "name": "Wild Sage",
    "address": "Ceintuurbaan 228-H, 1072GE, Amsterdam",
    "phone": "",
    "website": "https://wildsagefoods.nl/",
    "email": "",
    "instagram": "",
    "cuisine": "greek",
    "opening_hours": "",
    "lat": 52.3522926,
    "lon": 4.8886309,
    "osm_id": 332994768
  },
  {
    "name": "Golden Chopsticks",
    "address": "Oude Doelenstraat 1, 1012ED, Amsterdam",
    "phone": "",
    "website": "",
    "email": "",
    "instagram": "",
    "cuisine": "",
    "opening_hours": "",
    "lat": 52.3717749,
    "lon": 4.8963879,
    "osm_id": 363719080
  },
  {
    "name": "Eethuis Sie-Joe",
    "address": "Gravenstraat, 1012NM, Amsterdam",
    "phone": "",
    "website": "",
    "email": "",
    "instagram": "",
    "cuisine": "",
    "opening_hours": "",
    "lat": 52.3742998,
    "lon": 4.8919511,
    "osm_id": 364040518
  },
  {
    "name": "Hotel De Goudfazant",
    "address": "Aambeeldstraat 10 H, 1021KB, Amsterdam",
    "phone": "+31 20 636 5170",
    "website": "https://hoteldegoudfazant.nl/",
    "email": "info@hoteldegoudfazant.nl",
    "instagram": "",
    "cuisine": "",
    "opening_hours": "Mo off; Tu-Su 18:00+",
    "lat": 52.3837626,
    "lon": 4.9301104,
    "osm_id": 380792649
  },
  {
    "name": "Natraj",
    "address": "Transvaalstraat 5, 1092HA, Amsterdam",
    "phone": "",
    "website": "",
    "email": "",
    "instagram": "",
    "cuisine": "indian",
    "opening_hours": "",
    "lat": 52.355557,
    "lon": 4.9274907,
    "osm_id": 393136932
  },
  {
    "name": "Fuku Ramen",
    "address": "Ingogostraat 14A, 1092HZ, Amsterdam",
    "phone": "+31 6 42608596",
    "website": "https://www.fukuramenamsterdam.com/",
    "email": "",
    "instagram": "@fuku_ramen_amsterdam",
    "cuisine": "ramen",
    "opening_hours": "Th-Sa 18:00-23:00; Su 13:00-19:30",
    "lat": 52.3552228,
    "lon": 4.9257723,
    "osm_id": 393137999
  },
  {
    "name": "Rosarium",
    "address": "Amstelpark 1, 1083HZ, Amsterdam",
    "phone": "+31 20 644 4085",
    "website": "https://rosarium.net/",
    "email": "",
    "instagram": "",
    "cuisine": "",
    "opening_hours": "",
    "lat": 52.3318651,
    "lon": 4.8915964,
    "osm_id": 401830256
  },
  {
    "name": "La Margarita",
    "address": "Langebrugsteeg 6, 1012GB, Amsterdam",
    "phone": "+31 20 624 0529",
    "website": "https://mexican.nl/",
    "email": "",
    "instagram": "",
    "cuisine": "mexican",
    "opening_hours": "",
    "lat": 52.3692724,
    "lon": 4.8930721,
    "osm_id": 413449806
  },
  {
    "name": "La Favola",
    "address": "Amstelveenseweg 143, 1075VZ, Amsterdam",
    "phone": "",
    "website": "",
    "email": "",
    "instagram": "",
    "cuisine": "italian",
    "opening_hours": "",
    "lat": 52.3512001,
    "lon": 4.85707,
    "osm_id": 413624740
  },
  {
    "name": "Cafe Maurits",
    "address": "Hoofddorpplein 1, 1059CV, Amsterdam",
    "phone": "",
    "website": "https://www.cafemaurits.nl",
    "email": "",
    "instagram": "",
    "cuisine": "international",
    "opening_hours": "We-Th 17:30-22:00; Fr-Su 09:00-23:30",
    "lat": 52.3508915,
    "lon": 4.850327,
    "osm_id": 413624747
  },
  {
    "name": "Dizinghof",
    "address": "Heemstedestraat 18, 1058NM, Amsterdam",
    "phone": "",
    "website": "",
    "email": "",
    "instagram": "",
    "cuisine": "grill",
    "opening_hours": "",
    "lat": 52.3517667,
    "lon": 4.8486443,
    "osm_id": 413624761
  },
  {
    "name": "Lokaal van de Stad",
    "address": "Heemstedestraat 68, 1058NP, Amsterdam",
    "phone": "+31 6 18318558",
    "website": "https://www.lokaalvandestad.nl",
    "email": "lokaalvandestad@gmail.com",
    "instagram": "",
    "cuisine": "regional",
    "opening_hours": "Su-Tu 08:30-01:00; Fr,Sa 08:30-02:00",
    "lat": 52.3517075,
    "lon": 4.8461606,
    "osm_id": 413624765
  },
  {
    "name": "Perla di Roma",
    "address": "Johan Huizingalaan 177, 1065HZ, Amsterdam",
    "phone": "+31 20 615 9074",
    "website": "https://www.perladiroma.com",
    "email": "info@perladiroma.com",
    "instagram": "",
    "cuisine": "italian",
    "opening_hours": "Mo-Su 17:00-23:00",
    "lat": 52.3584417,
    "lon": 4.8276799,
    "osm_id": 413642346
  },
  {
    "name": "Roos Steakhouse",
    "address": "Johan Huizingalaan 174, 1065JH, Amsterdam",
    "phone": "+31 20 617 6268",
    "website": "",
    "email": "",
    "instagram": "",
    "cuisine": "steak_house",
    "opening_hours": "",
    "lat": 52.3585173,
    "lon": 4.8268358,
    "osm_id": 413642348
  },
  {
    "name": "Du Maroc",
    "address": "Comeniusstraat 513, 1065BX, Amsterdam",
    "phone": "+31 20 617 3408",
    "website": "https://www.restaurantdumaroc.nl",
    "email": "",
    "instagram": "",
    "cuisine": "grill;moroccan",
    "opening_hours": "Tu-Sa 11:00-23:00; Su 12:00-23:00",
    "lat": 52.3591448,
    "lon": 4.8262917,
    "osm_id": 413642350
  },
  {
    "name": "de Veranda",
    "address": "Amstelveenseweg 764, 1081JK, Amsterdam",
    "phone": "",
    "website": "https://www.deveranda.nl",
    "email": "",
    "instagram": "",
    "cuisine": "",
    "opening_hours": "",
    "lat": 52.3307698,
    "lon": 4.8569481,
    "osm_id": 420564566
  },
  {
    "name": "Betty's",
    "address": "Rijnstraat 75-HS, 1079GX, Amsterdam",
    "phone": "",
    "website": "",
    "email": "",
    "instagram": "",
    "cuisine": "",
    "opening_hours": "",
    "lat": 52.3455467,
    "lon": 4.9057738,
    "osm_id": 427989087
  },
  {
    "name": "Happy Corner",
    "address": "Plantage Middenlaan 30, Amsterdam",
    "phone": "",
    "website": "https://www.restauranthappycorner.nl/",
    "email": "",
    "instagram": "",
    "cuisine": "chinese",
    "opening_hours": "",
    "lat": 52.3662399,
    "lon": 4.9118164,
    "osm_id": 430686827
  },
  {
    "name": "Agora",
    "address": "Amsterdam",
    "phone": "",
    "website": "",
    "email": "",
    "instagram": "",
    "cuisine": "",
    "opening_hours": "",
    "lat": 52.3635596,
    "lon": 4.911176,
    "osm_id": 432855893
  },
  {
    "name": "La Place",
    "address": "Kalverstraat 203, 1012XC, Amsterdam",
    "phone": "",
    "website": "https://www.laplace.com/",
    "email": "",
    "instagram": "",
    "cuisine": "",
    "opening_hours": "",
    "lat": 52.3676426,
    "lon": 4.8924135,
    "osm_id": 432862171
  },
  {
    "name": "Pasouk",
    "address": "Amsterdam",
    "phone": "",
    "website": "",
    "email": "",
    "instagram": "",
    "cuisine": "thai",
    "opening_hours": "",
    "lat": 52.3937619,
    "lon": 4.9138248,
    "osm_id": 437009593
  },
  {
    "name": "Vatten Ramen",
    "address": "Plantage Kerklaan 28, Amsterdam",
    "phone": "",
    "website": "https://www.instagram.com/vattenramen/",
    "email": "",
    "instagram": "@vattenramen",
    "cuisine": "ramen",
    "opening_hours": "",
    "lat": 52.3660271,
    "lon": 4.9116177,
    "osm_id": 440009812
  },
  {
    "name": "Jinso",
    "address": "Johan Cruijff Boulevard 155, 1101EJ, Amsterdam",
    "phone": "+31 20 697 4138",
    "website": "https://www.jinso.nl/",
    "email": "info@jinso.nl",
    "instagram": "",
    "cuisine": "chinese",
    "opening_hours": "Mo-Su 11:30-24:00",
    "lat": 52.3127382,
    "lon": 4.944758,
    "osm_id": 440356406
  },
  {
    "name": "Pancakes Amsterdam",
    "address": "Prinsengracht 277, 1016GW, Amsterdam",
    "phone": "",
    "website": "https://pancakes.amsterdam/",
    "email": "",
    "instagram": "",
    "cuisine": "pancakes",
    "opening_hours": "Mo-Su,PH 09:00-17:00",
    "lat": 52.3748634,
    "lon": 4.8838557,
    "osm_id": 440431999
  },
  {
    "name": "Soenda Kelapa",
    "address": "Utrechtsestraat 89-H, 1017VK, Amsterdam",
    "phone": "+31 20 627 9416",
    "website": "https://www.soendakelapa.com",
    "email": "",
    "instagram": "",
    "cuisine": "indonesian",
    "opening_hours": "We-Mo 18:00-23:00",
    "lat": 52.3630054,
    "lon": 4.8987669,
    "osm_id": 447561385
  },
  {
    "name": "Kramer",
    "address": "Herengracht 515, 1017BV, Amsterdam",
    "phone": "+31 20 320 8175",
    "website": "https://cafekramer.nl/",
    "email": "",
    "instagram": "",
    "cuisine": "asian",
    "opening_hours": "",
    "lat": 52.3654467,
    "lon": 4.8926577,
    "osm_id": 447564209
  },
  {
    "name": "Jasmine",
    "address": "Zeedijk 119, 1012AW, Amsterdam",
    "phone": "+31 20 280 7841",
    "website": "https://padthai.world/",
    "email": "",
    "instagram": "",
    "cuisine": "thai",
    "opening_hours": "Mo-Su 12:00-23:00",
    "lat": 52.3735356,
    "lon": 4.9003082,
    "osm_id": 447566444
  },
  {
    "name": "Bollywood Indian Restaurant",
    "address": "Amsterdam",
    "phone": "",
    "website": "https://restaurantbollywood.nl/en/",
    "email": "",
    "instagram": "",
    "cuisine": "indian",
    "opening_hours": "",
    "lat": 52.3639694,
    "lon": 4.8844033,
    "osm_id": 447815483
  },
  {
    "name": "Puri Mas Indonesisch Restaurant",
    "address": "Lange Leidsedwarsstraat 37, 1017NG, Amsterdam",
    "phone": "",
    "website": "https://www.purimas.nl/",
    "email": "",
    "instagram": "",
    "cuisine": "indonesian",
    "opening_hours": "Tu-Su 17:00-22:30",
    "lat": 52.3641036,
    "lon": 4.8845382,
    "osm_id": 447815843
  },
  {
    "name": "Tashi Deleg",
    "address": "Utrechtsestraat 65, 1017VJ, Amsterdam",
    "phone": "+31 20 620 6624",
    "website": "http://tashideleg.nl/",
    "email": "",
    "instagram": "",
    "cuisine": "tibetan;indonesian",
    "opening_hours": "Mo-Su 14:00-22:30",
    "lat": 52.3634907,
    "lon": 4.8985572,
    "osm_id": 461796303
  },
  {
    "name": "Wissenkerke-Sloterdijk",
    "address": "Radarweg 236, 1043NV, Amsterdam",
    "phone": "",
    "website": "https://www.wissenkerke-sloterdijk.nl/",
    "email": "",
    "instagram": "",
    "cuisine": "",
    "opening_hours": "Mo-Fr 11:30-22:00",
    "lat": 52.3871186,
    "lon": 4.835454,
    "osm_id": 465504865
  },
  {
    "name": "Bir Tat",
    "address": "Bos en Lommerweg 242, 1055EJ, Amsterdam",
    "phone": "+31 20 684 7666",
    "website": "https://www.birtat.nl",
    "email": "",
    "instagram": "",
    "cuisine": "shoarma",
    "opening_hours": "Mo-Su 09:00-01:00",
    "lat": 52.3786322,
    "lon": 4.8483173,
    "osm_id": 465504873
  },
  {
    "name": "Brasserie Keyzer",
    "address": "Van Baerlestraat 96, 1071BB, Amsterdam",
    "phone": "+31 20 675 1866",
    "website": "https://brasseriekeyzer.nl",
    "email": "",
    "instagram": "",
    "cuisine": "",
    "opening_hours": "",
    "lat": 52.3568126,
    "lon": 4.8792088,
    "osm_id": 469633864
  },
  {
    "name": "Small Talk",
    "address": "Van Baerlestraat 52, 1071BA, Amsterdam",
    "phone": "",
    "website": "",
    "email": "",
    "instagram": "",
    "cuisine": "",
    "opening_hours": "",
    "lat": 52.3579755,
    "lon": 4.878408,
    "osm_id": 473854628
  },
  {
    "name": "La Madonnina",
    "address": "Rembrandtplein 12A-14, 1017CV, Amsterdam",
    "phone": "",
    "website": "",
    "email": "",
    "instagram": "",
    "cuisine": "italian",
    "opening_hours": "",
    "lat": 52.3658484,
    "lon": 4.8955024,
    "osm_id": 474752594
  },
  {
    "name": "Bunga Mawar",
    "address": "Zeedijk 41, 1012AR, Amsterdam",
    "phone": "",
    "website": "",
    "email": "",
    "instagram": "",
    "cuisine": "indonesian",
    "opening_hours": "",
    "lat": 52.3753852,
    "lon": 4.901161,
    "osm_id": 475208653
  },
  {
    "name": "De Portugees",
    "address": "Zeedijk 39, 1012AR, Amsterdam",
    "phone": "",
    "website": "http://www.deportugees.com",
    "email": "",
    "instagram": "",
    "cuisine": "portuguese",
    "opening_hours": "",
    "lat": 52.3754456,
    "lon": 4.9011363,
    "osm_id": 475209057
  },
  {
    "name": "Pancakes Amsterdam",
    "address": "Berenstraat 38, 1016GH, Amsterdam",
    "phone": "",
    "website": "https://www.pancakesamsterdam.com",
    "email": "",
    "instagram": "",
    "cuisine": "pancake",
    "opening_hours": "Mo-Su 09:00-18:00",
    "lat": 52.3704712,
    "lon": 4.8832353,
    "osm_id": 475217092
  },
  {
    "name": "Bella Vita",
    "address": "Burgemeester De Vlugtlaan 188, 1063BS, Amsterdam",
    "phone": "",
    "website": "",
    "email": "",
    "instagram": "",
    "cuisine": "italian",
    "opening_hours": "",
    "lat": 52.3815999,
    "lon": 4.8220792,
    "osm_id": 476027647
  },
  {
    "name": "The Pancake Bakery",
    "address": "Prinsengracht 191, 1015DS, Amsterdam",
    "phone": "+31 20 625 1333",
    "website": "https://www.pancake.nl",
    "email": "",
    "instagram": "",
    "cuisine": "pancake",
    "opening_hours": "Mo-Su 09:00-21:30",
    "lat": 52.3775885,
    "lon": 4.8862637,
    "osm_id": 493987547
  },
  {
    "name": "Lunch & Dinner",
    "address": "Nieuwezijds Voorburgwal 119, 1012RH, Amsterdam",
    "phone": "",
    "website": "",
    "email": "",
    "instagram": "",
    "cuisine": "",
    "opening_hours": "",
    "lat": 52.3743286,
    "lon": 4.8915885,
    "osm_id": 495318435
  },
  {
    "name": "Seafood Grill",
    "address": "Amsterdam",
    "phone": "",
    "website": "",
    "email": "",
    "instagram": "",
    "cuisine": "",
    "opening_hours": "",
    "lat": 52.3744155,
    "lon": 4.8916595,
    "osm_id": 495320684
  },
  {
    "name": "LM",
    "address": "Amsterdam",
    "phone": "",
    "website": "",
    "email": "",
    "instagram": "",
    "cuisine": "",
    "opening_hours": "",
    "lat": 52.356045,
    "lon": 4.8885043,
    "osm_id": 497165622
  },
  {
    "name": "ISSHIN",
    "address": "Amsterdam",
    "phone": "",
    "website": "https://www.isshin-amsterdam.nl",
    "email": "",
    "instagram": "",
    "cuisine": "japanese",
    "opening_hours": "",
    "lat": 52.3570377,
    "lon": 4.8886451,
    "osm_id": 497166929
  },
  {
    "name": "Otaru",
    "address": "Frans Halsstraat 2, 1072BR, Amsterdam",
    "phone": "+31 20 670 8972",
    "website": "https://www.otaru.nl/",
    "email": "info@otaru.nl",
    "instagram": "",
    "cuisine": "japanese",
    "opening_hours": "",
    "lat": 52.3584175,
    "lon": 4.8888704,
    "osm_id": 497166933
  },
  {
    "name": "Sama Sebo",
    "address": "Pieter Cornelisz. Hooftstraat 27, 1071BL, Amsterdam",
    "phone": "",
    "website": "https://www.samasebo.nl/",
    "email": "",
    "instagram": "",
    "cuisine": "indonesian",
    "opening_hours": "Mo-Sa 12:00-15:00, 17:00+; PH off",
    "lat": 52.3606764,
    "lon": 4.8831414,
    "osm_id": 497169603
  },
  {
    "name": "Maxies",
    "address": "Amsterdam",
    "phone": "",
    "website": "",
    "email": "",
    "instagram": "",
    "cuisine": "",
    "opening_hours": "",
    "lat": 52.3600875,
    "lon": 4.8797621,
    "osm_id": 497169607
  },
  {
    "name": "One Dim Sum",
    "address": "Overtoom 109, Amsterdam",
    "phone": "",
    "website": "",
    "email": "",
    "instagram": "",
    "cuisine": "",
    "opening_hours": "",
    "lat": 52.3622867,
    "lon": 4.8742446,
    "osm_id": 497171384
  },
  {
    "name": "Hard Rock Cafe",
    "address": "Max Euweplein 57, 1017MA, Amsterdam",
    "phone": "+31 20 888 1358",
    "website": "https://www.hardrockcafe.com/location/amsterdam/",
    "email": "",
    "instagram": "",
    "cuisine": "american",
    "opening_hours": "Mo-Th 09:00-24:00, Fr,Sa 09:00-01:00",
    "lat": 52.3621869,
    "lon": 4.8833077,
    "osm_id": 497179291
  },
  {
    "name": "Hosokawa",
    "address": "Amsterdam",
    "phone": "",
    "website": "",
    "email": "",
    "instagram": "",
    "cuisine": "japanese",
    "opening_hours": "",
    "lat": 52.3629202,
    "lon": 4.8827502,
    "osm_id": 497179306
  },
  {
    "name": "Wagamama",
    "address": "Amsterdam",
    "phone": "+31 20 528 7778",
    "website": "",
    "email": "",
    "instagram": "",
    "cuisine": "asian",
    "opening_hours": "Mo-Su 12:00-22:00",
    "lat": 52.3625079,
    "lon": 4.8831541,
    "osm_id": 497180853
  },
  {
    "name": "Maximus Steak House",
    "address": "Amsterdam",
    "phone": "+31 20 626 5300",
    "website": "https://maximussteakhouse.com/",
    "email": "info@maximussteakhouse.com",
    "instagram": "",
    "cuisine": "",
    "opening_hours": "Mo-Su 12:00-23:00",
    "lat": 52.3622945,
    "lon": 4.8834726,
    "osm_id": 497180854
  },
  {
    "name": "De Balie",
    "address": "Amsterdam",
    "phone": "",
    "website": "",
    "email": "",
    "instagram": "",
    "cuisine": "",
    "opening_hours": "Tu-Su 09:00-23:00, Fr 09:00-01:00, Sa 10:00-01:00",
    "lat": 52.36312,
    "lon": 4.883101,
    "osm_id": 497182332
  },
  {
    "name": "Anmol",
    "address": "Amsterdam",
    "phone": "",
    "website": "",
    "email": "",
    "instagram": "",
    "cuisine": "indian",
    "opening_hours": "",
    "lat": 52.3622297,
    "lon": 4.8759194,
    "osm_id": 497194300
  },
  {
    "name": "de Joffers",
    "address": "Willemsparkweg 163-H, 1071GZ, Amsterdam",
    "phone": "+31 20 673 0360",
    "website": "https://brasseriedejoffers.nl/",
    "email": "info@brasseriedejoffers.nl",
    "instagram": "@brasseriedejoffers",
    "cuisine": "",
    "opening_hours": "Mo-Su 08:00-20:00",
    "lat": 52.3558535,
    "lon": 4.8710042,
    "osm_id": 500330846
  },
  {
    "name": "Van Dam",
    "address": "Amsterdam",
    "phone": "",
    "website": "",
    "email": "",
    "instagram": "",
    "cuisine": "",
    "opening_hours": "",
    "lat": 52.3556729,
    "lon": 4.8707638,
    "osm_id": 500331309
  },
  {
    "name": "Miss Saigon",
    "address": "Amsterdam",
    "phone": "",
    "website": "",
    "email": "",
    "instagram": "",
    "cuisine": "chinese",
    "opening_hours": "",
    "lat": 52.3659848,
    "lon": 4.8728348,
    "osm_id": 504265778
  },
  {
    "name": "De Ysbreeker",
    "address": "Weesperzijde 23, 1091EC, Amsterdam",
    "phone": "",
    "website": "",
    "email": "",
    "instagram": "",
    "cuisine": "",
    "opening_hours": "Mo-Th,Su 08:00-01:00; Fr-Sa 08:00-02:00",
    "lat": 52.3574883,
    "lon": 4.9068874,
    "osm_id": 506494134
  },
  {
    "name": "Pizza Project",
    "address": "Wilhelminastraat 153, Amsterdam",
    "phone": "",
    "website": "",
    "email": "",
    "instagram": "",
    "cuisine": "pizza",
    "opening_hours": "",
    "lat": 52.360962,
    "lon": 4.8611643,
    "osm_id": 507092570
  },
  {
    "name": "Number 1",
    "address": "Mosplein 1, 1031AA, Amsterdam",
    "phone": "",
    "website": "",
    "email": "",
    "instagram": "",
    "cuisine": "pizza",
    "opening_hours": "",
    "lat": 52.3910141,
    "lon": 4.9107228,
    "osm_id": 507913482
  },
  {
    "name": "De Haven van Texel",
    "address": "Amsterdam",
    "phone": "",
    "website": "",
    "email": "",
    "instagram": "",
    "cuisine": "",
    "opening_hours": "",
    "lat": 52.3757889,
    "lon": 4.9002791,
    "osm_id": 534025075
  },
  {
    "name": "Trees",
    "address": "Zeedijk 14, Amsterdam",
    "phone": "",
    "website": "",
    "email": "",
    "instagram": "",
    "cuisine": "",
    "opening_hours": "",
    "lat": 52.3758329,
    "lon": 4.9004544,
    "osm_id": 534025270
  },
  {
    "name": "Kam Yin",
    "address": "Warmoesstraat 6, 1012JD, Amsterdam",
    "phone": "+31 20 625 3115",
    "website": "https://www.kamyin.nl/",
    "email": "",
    "instagram": "",
    "cuisine": "",
    "opening_hours": "Mo-Su 12:00-00:00",
    "lat": 52.3762358,
    "lon": 4.8994544,
    "osm_id": 534025468
  },
  {
    "name": "Eenvistweevis",
    "address": "Amsterdam",
    "phone": "",
    "website": "",
    "email": "",
    "instagram": "",
    "cuisine": "",
    "opening_hours": "",
    "lat": 52.3708182,
    "lon": 4.9117106,
    "osm_id": 539128135
  },
  {
    "name": "Ibericus Amsterdam",
    "address": "Haarlemmerstraat 93, 1013EM, Amsterdam",
    "phone": "+31 20 223 6573",
    "website": "https://www.facebook.com/IbericusAmsterdam",
    "email": "",
    "instagram": "",
    "cuisine": "spanish",
    "opening_hours": "Mo-Th 10:00-18:00; Fr-Sa 10:00-19:00; Su 11:00-17:00",
    "lat": 52.3805158,
    "lon": 4.8908642,
    "osm_id": 558302962
  },
  {
    "name": "Tom Yum Kung",
    "address": "Amsterdam",
    "phone": "",
    "website": "",
    "email": "",
    "instagram": "",
    "cuisine": "thai",
    "opening_hours": "Mo-Su 17:00-22:00",
    "lat": 52.3690154,
    "lon": 4.9217091,
    "osm_id": 565677299
  },
  {
    "name": "La Oliva Pintxos y Vinos",
    "address": "Egelantiersstraat 122-124, 1015PR, Amsterdam",
    "phone": "+31 20 320 4316",
    "website": "https://www.laoliva.nl",
    "email": "",
    "instagram": "@laoliva_amsterdam",
    "cuisine": "spanish",
    "opening_hours": "Mo-Su 12:00-22:00",
    "lat": 52.3766957,
    "lon": 4.8822395,
    "osm_id": 566346908
  },
  {
    "name": "Two Chefs Bar",
    "address": "Hugo de Grootplein 7-11, 1052KV, Amsterdam",
    "phone": "",
    "website": "https://bar.twochefsbrewing.com/",
    "email": "",
    "instagram": "",
    "cuisine": "",
    "opening_hours": "",
    "lat": 52.3743481,
    "lon": 4.8730425,
    "osm_id": 568090219
  },
  {
    "name": "San Lok",
    "address": "Amsterdam",
    "phone": "",
    "website": "",
    "email": "",
    "instagram": "",
    "cuisine": "chinese",
    "opening_hours": "",
    "lat": 52.3531616,
    "lon": 4.826975,
    "osm_id": 571185748
  },
  {
    "name": "Suvarnadhum",
    "address": "Amsterdam",
    "phone": "",
    "website": "",
    "email": "",
    "instagram": "",
    "cuisine": "thai",
    "opening_hours": "",
    "lat": 52.3540339,
    "lon": 4.8270284,
    "osm_id": 571185753
  },
  {
    "name": "Porto Marina",
    "address": "Amsterdam",
    "phone": "",
    "website": "",
    "email": "",
    "instagram": "",
    "cuisine": "seafood",
    "opening_hours": "",
    "lat": 52.3564035,
    "lon": 4.8268513,
    "osm_id": 571185758
  },
  {
    "name": "Abina",
    "address": "Amsterdamseweg 193, 1182GW, Amstelveen",
    "phone": "",
    "website": "https://abina.nl",
    "email": "",
    "instagram": "",
    "cuisine": "regional",
    "opening_hours": "Mo-Th 06:00-24:00, Fr 06:00-02:00, Sa 08:00-02:00, Su 08:00-24:00",
    "lat": 52.3114077,
    "lon": 4.8465739,
    "osm_id": 582753958
  },
  {
    "name": "Pane e Vino",
    "address": "Amsterdamseweg 172, 1182HK, Amstelveen",
    "phone": "",
    "website": "",
    "email": "",
    "instagram": "",
    "cuisine": "italian",
    "opening_hours": "",
    "lat": 52.3109584,
    "lon": 4.8471397,
    "osm_id": 582753959
  },
  {
    "name": "Nyonya",
    "address": "Kloveniersburgwal 38-H, 1012CW, Amsterdam",
    "phone": "+31 20 422 2447",
    "website": "https://www.nyonyamalaysiarest.nl",
    "email": "",
    "instagram": "",
    "cuisine": "malaysian",
    "opening_hours": "Th-Su 12:00-21:00",
    "lat": 52.371321,
    "lon": 4.8986226,
    "osm_id": 582834916
  },
  {
    "name": "De Jonge Dikkert",
    "address": "Amsterdamseweg 104-a, 1182HG, Amstelveen",
    "phone": "+31 20 643 3333",
    "website": "https://www.jongedikkert.nl",
    "email": "",
    "instagram": "",
    "cuisine": "french",
    "opening_hours": "",
    "lat": 52.3081616,
    "lon": 4.8472259,
    "osm_id": 592009060
  },
  {
    "name": "Café Cook",
    "address": "Amsterdam",
    "phone": "",
    "website": "",
    "email": "",
    "instagram": "",
    "cuisine": "",
    "opening_hours": "",
    "lat": 52.3712507,
    "lon": 4.8526367,
    "osm_id": 595264885
  },
  {
    "name": "Alexandros",
    "address": "Kostverlorenhof 48, 1183HG, Amstelveen",
    "phone": "",
    "website": "https://www.restaurantalexandros.nl",
    "email": "",
    "instagram": "",
    "cuisine": "greek",
    "opening_hours": "",
    "lat": 52.3131613,
    "lon": 4.8753934,
    "osm_id": 599622997
  },
  {
    "name": "Yu Woah",
    "address": "Kostverlorenhof 56, 1183HG, Amstelveen",
    "phone": "",
    "website": "http://www.yuwoah-amstelveen.nl",
    "email": "",
    "instagram": "",
    "cuisine": "chinese",
    "opening_hours": "",
    "lat": 52.313081,
    "lon": 4.8749428,
    "osm_id": 599623014
  },
  {
    "name": "The Red Sun",
    "address": "Amsterdam",
    "phone": "",
    "website": "",
    "email": "",
    "instagram": "",
    "cuisine": "",
    "opening_hours": "",
    "lat": 52.3460697,
    "lon": 4.8662367,
    "osm_id": 603155604
  },
  {
    "name": "Quartier Sud",
    "address": "Amsterdam",
    "phone": "",
    "website": "",
    "email": "",
    "instagram": "",
    "cuisine": "",
    "opening_hours": "",
    "lat": 52.3460319,
    "lon": 4.8668971,
    "osm_id": 603155615
  },
  {
    "name": "Café Luxembourg",
    "address": "Spui 24, 1012XA, Amsterdam",
    "phone": "+31 20 620 6264",
    "website": "https://www.luxembourg.nl",
    "email": "",
    "instagram": "",
    "cuisine": "dutch",
    "opening_hours": "Su-Th 09:00-24:00, Fr-Sa 09:00-01:00",
    "lat": 52.3686609,
    "lon": 4.8887034,
    "osm_id": 603364812
  },
  {
    "name": "Ponte Arcari",
    "address": "Amsterdam",
    "phone": "",
    "website": "",
    "email": "",
    "instagram": "",
    "cuisine": "",
    "opening_hours": "",
    "lat": 52.3645714,
    "lon": 4.8961886,
    "osm_id": 604435945
  },
  {
    "name": "De Belhamel",
    "address": "Amsterdam",
    "phone": "",
    "website": "",
    "email": "",
    "instagram": "",
    "cuisine": "regional",
    "opening_hours": "12:00-16:00; 18:00-22:00",
    "lat": 52.3794471,
    "lon": 4.8921366,
    "osm_id": 622472303
  },
  {
    "name": "Neva",
    "address": "Amsterdam",
    "phone": "",
    "website": "http://neva.nl",
    "email": "",
    "instagram": "",
    "cuisine": "",
    "opening_hours": "",
    "lat": 52.3654316,
    "lon": 4.9033085,
    "osm_id": 632110110
  },
  {
    "name": "Fumi",
    "address": "Prof. E.M. Meijerslaan 6, 1183AV, Amstelveen",
    "phone": "+31 20 3455489",
    "website": "https://fumi-amstelveen.nl/",
    "email": "",
    "instagram": "",
    "cuisine": "asian",
    "opening_hours": "Tu-Su 12:00-15:00,16:00-22:30",
    "lat": 52.3183612,
    "lon": 4.8753794,
    "osm_id": 638383976
  },
  {
    "name": "Golden Garden",
    "address": "Delflandplein 24-28, 1062HR, Amsterdam",
    "phone": "+31 20 617 4342",
    "website": "http://goldengarden.nu/",
    "email": "",
    "instagram": "",
    "cuisine": "chinese",
    "opening_hours": "",
    "lat": 52.3498636,
    "lon": 4.8397507,
    "osm_id": 667381820
  },
  {
    "name": "Oleg Pelmeni Bar",
    "address": "Roetersstraat 10A, 1018WC, Amsterdam",
    "phone": "",
    "website": "",
    "email": "",
    "instagram": "",
    "cuisine": "russian",
    "opening_hours": "",
    "lat": 52.3636953,
    "lon": 4.9105681,
    "osm_id": 679722873
  },
  {
    "name": "Jen's Bing",
    "address": "Roetersstraat 4-H, 1018WC, Amsterdam",
    "phone": "",
    "website": "https://www.jensbing.nl/",
    "email": "",
    "instagram": "",
    "cuisine": "asian;bubble_tea",
    "opening_hours": "Mo-Su 11:00-20:00",
    "lat": 52.3639011,
    "lon": 4.9106394,
    "osm_id": 679749862
  },
  {
    "name": "Aguada",
    "address": "Amsterdam",
    "phone": "",
    "website": "",
    "email": "",
    "instagram": "",
    "cuisine": "Diversen",
    "opening_hours": "",
    "lat": 52.3637583,
    "lon": 4.9105976,
    "osm_id": 679749863
  },
  {
    "name": "Loetje",
    "address": "Stationsplein 10, 1012AB, Amsterdam",
    "phone": "+31 20 623 3777",
    "website": "https://www.loetje.nl/locaties/amsterdam-centraal/",
    "email": "",
    "instagram": "@loetje_restaurant",
    "cuisine": "steak_house",
    "opening_hours": "Mo-Th,Su 10:00-22:00; Fr-Sa 10:00-22:30",
    "lat": 52.377503,
    "lon": 4.9004373,
    "osm_id": 704461695
  },
  {
    "name": "Brasserie 't Siertje",
    "address": "Sierplein 2, 1065LM, Amsterdam",
    "phone": "+31 20 617 6271",
    "website": "https://brasserietsiertje.nl/",
    "email": "",
    "instagram": "",
    "cuisine": "",
    "opening_hours": "Mo 09:00-18:00; Tu 09:00-18:00; We 09:00-18:00; Th 09:00-18:00; Fr 09:00-18:00; Sa 09:00-17:00; Su off",
    "lat": 52.355879,
    "lon": 4.8264837,
    "osm_id": 706792079
  },
  {
    "name": "Boulevard Cafe",
    "address": "Amsterdam",
    "phone": "",
    "website": "",
    "email": "",
    "instagram": "",
    "cuisine": "international",
    "opening_hours": "Tu-Th 12:00-24:00, Fr 12:00-01:00, Sa 14:00-01:00, Su 14:00-23:00",
    "lat": 52.3686365,
    "lon": 4.9344655,
    "osm_id": 732392347
  },
  {
    "name": "Cai & Cai",
    "address": "Borneolaan 515, 1019KP, Amsterdam",
    "phone": "+31 20 419 7710",
    "website": "https://caicairestaurant.nl",
    "email": "caicaibv2022@gmail.com",
    "instagram": "",
    "cuisine": "asian;fusion;sushi;buffet",
    "opening_hours": "16:00-22:00; Tu off",
    "lat": 52.3713201,
    "lon": 4.9401995,
    "osm_id": 734165823
  },
  {
    "name": "Piccolino",
    "address": "Lange Leidsedwarsstraat 63, 1017NH, Amsterdam",
    "phone": "",
    "website": "https://www.ristorantepiccolino.nl",
    "email": "",
    "instagram": "",
    "cuisine": "italian",
    "opening_hours": "12:00-23:00",
    "lat": 52.3636053,
    "lon": 4.8852731,
    "osm_id": 737187579
  },
  {
    "name": "Royal Fook Long",
    "address": "Hageland 61-69, 1066RD, Amsterdam",
    "phone": "+31 20 669 6787",
    "website": "https://royalfooklong.com",
    "email": "",
    "instagram": "",
    "cuisine": "chinese;sushi",
    "opening_hours": "Mo-Su 16:00-22:00",
    "lat": 52.3453224,
    "lon": 4.8100429,
    "osm_id": 746910425
  },
  {
    "name": "63 Degrees Foodbar",
    "address": "Amsterdam",
    "phone": "",
    "website": "",
    "email": "",
    "instagram": "",
    "cuisine": "",
    "opening_hours": "",
    "lat": 52.3527533,
    "lon": 4.8479962,
    "osm_id": 761236360
  },
  {
    "name": "Glatt Kosjer",
    "address": "Amstelveenseweg 224, 1075XT, Amsterdam",
    "phone": "",
    "website": "",
    "email": "",
    "instagram": "",
    "cuisine": "jewish",
    "opening_hours": "",
    "lat": 52.3510433,
    "lon": 4.8565512,
    "osm_id": 768575159
  },
  {
    "name": "Meerzicht",
    "address": "Nieuwemeerdijk 326, 1171NT, Badhoevedorp",
    "phone": "",
    "website": "https://www.restaurantmeerzicht.nl/",
    "email": "",
    "instagram": "",
    "cuisine": "",
    "opening_hours": "",
    "lat": 52.3261001,
    "lon": 4.8172918,
    "osm_id": 782253208
  },
  {
    "name": "O-Cha",
    "address": "Binnen Bantammerstraat 1, Amsterdam",
    "phone": "+31 20 625 9958",
    "website": "",
    "email": "",
    "instagram": "",
    "cuisine": "thai",
    "opening_hours": "Tu-Su 16:00-22:00",
    "lat": 52.3740057,
    "lon": 4.901904,
    "osm_id": 806014558
  },
  {
    "name": "lePita",
    "address": "Kastelenstraat 265, 1082EG, Amsterdam",
    "phone": "+31 20 786 8609",
    "website": "http://www.lepita.nl/lepita/menu2024.jpg",
    "email": "",
    "instagram": "",
    "cuisine": "arab;deli;mediterranean",
    "opening_hours": "Su-Th 11:00-21:00; Fr 11:00-16:00",
    "lat": 52.3257181,
    "lon": 4.8710603,
    "osm_id": 850735390
  },
  {
    "name": "Momo",
    "address": "Hobbemastraat 1, 1071XZ, Amsterdam",
    "phone": "+31 20 6717474",
    "website": "https://www.momo-amsterdam.com",
    "email": "",
    "instagram": "",
    "cuisine": "",
    "opening_hours": "",
    "lat": 52.3615027,
    "lon": 4.8825862,
    "osm_id": 863195537
  },
  {
    "name": "Cuisine of India",
    "address": "Binnen Bantammerstraat 9, Amsterdam",
    "phone": "",
    "website": "",
    "email": "",
    "instagram": "",
    "cuisine": "indian",
    "opening_hours": "",
    "lat": 52.3738722,
    "lon": 4.9022134,
    "osm_id": 866385078
  },
  {
    "name": "Italia Oggi",
    "address": "Binnen Bantammerstraat 11-H, 1011CH, Amsterdam",
    "phone": "+31 6 2180 6400",
    "website": "https://www.italiaoggi.nl",
    "email": "",
    "instagram": "@explore/locations/1308146/netherlands/amsterdam-netherlands/italia-oggi",
    "cuisine": "italian",
    "opening_hours": "Mo-Su 17:00-23:00",
    "lat": 52.3738399,
    "lon": 4.9022578,
    "osm_id": 866385091
  },
  {
    "name": "AM Sushi",
    "address": "Amsterdam",
    "phone": "",
    "website": "",
    "email": "",
    "instagram": "",
    "cuisine": "sushi",
    "opening_hours": "",
    "lat": 52.3497742,
    "lon": 4.9035997,
    "osm_id": 916341139
  },
  {
    "name": "Faa Thai",
    "address": "Marathonweg 10, 1076TE, Amsterdam",
    "phone": "",
    "website": "http://www.faathai.nl",
    "email": "",
    "instagram": "",
    "cuisine": "thai",
    "opening_hours": "",
    "lat": 52.3482413,
    "lon": 4.8609154,
    "osm_id": 921781904
  },
  {
    "name": "Tokyo garden",
    "address": "Burgemeester Rendorpstraat 17, 1064EL, Amsterdam",
    "phone": "",
    "website": "https://tokyogarden.nl/",
    "email": "",
    "instagram": "",
    "cuisine": "japanese",
    "opening_hours": "",
    "lat": 52.3741582,
    "lon": 4.8265868,
    "osm_id": 957593170
  },
  {
    "name": "Nossa Senhora",
    "address": "Zeedijk 28, 1012AZ, Amsterdam",
    "phone": "",
    "website": "",
    "email": "",
    "instagram": "",
    "cuisine": "",
    "opening_hours": "",
    "lat": 52.3754918,
    "lon": 4.9008899,
    "osm_id": 958673979
  },
  {
    "name": "Nel",
    "address": "Amstelveld 12, 1017JD, Amsterdam",
    "phone": "+31 20 626 1199",
    "website": "https://brasserienel.nl",
    "email": "",
    "instagram": "@brasserienel",
    "cuisine": "",
    "opening_hours": "Su-Tu 10:30-18:00, We-Sa 10:30-01:00",
    "lat": 52.3621972,
    "lon": 4.8966302,
    "osm_id": 965293083
  },
  {
    "name": "De Deli",
    "address": "Plantage Kerklaan 41, Amsterdam",
    "phone": "+31 20 354 2669",
    "website": "https://borrl.kitchen/",
    "email": "info@borrl.kitchen",
    "instagram": "",
    "cuisine": "",
    "opening_hours": "Mo-Su 10:00-18:00",
    "lat": 52.3670112,
    "lon": 4.9120064,
    "osm_id": 976615026
  },
  {
    "name": "New Dutch",
    "address": "Prinsengracht 62, 1015DX, Amsterdam",
    "phone": "",
    "website": "",
    "email": "",
    "instagram": "",
    "cuisine": "",
    "opening_hours": "We-Mo 09:00-15:00",
    "lat": 52.3778982,
    "lon": 4.8855738,
    "osm_id": 1020237619
  },
  {
    "name": "Lalla Rookh",
    "address": "Wijttenbachstraat 290, 1093JK, Amsterdam",
    "phone": "",
    "website": "",
    "email": "",
    "instagram": "",
    "cuisine": "surinamese",
    "opening_hours": "",
    "lat": 52.360674,
    "lon": 4.9285149,
    "osm_id": 1043896615
  },
  {
    "name": "R21",
    "address": "Peperstraat 23, 1011TJ, Amsterdam",
    "phone": "",
    "website": "",
    "email": "",
    "instagram": "",
    "cuisine": "",
    "opening_hours": "",
    "lat": 52.3715795,
    "lon": 4.9077158,
    "osm_id": 1055573894
  },
  {
    "name": "Babel",
    "address": "Oosterdokskade 143, Amsterdam",
    "phone": "",
    "website": "https://babel.amsterdam/",
    "email": "",
    "instagram": "",
    "cuisine": "",
    "opening_hours": "Mo-Fr 10:00-22:00; Sa-Su 10:00-20:00",
    "lat": 52.3758693,
    "lon": 4.9081512,
    "osm_id": 1074370472
  },
  {
    "name": "Plancius",
    "address": "Plantage Kerklaan 61C, 1018CX, Amsterdam",
    "phone": "+31 20 223 6946",
    "website": "https://www.restaurantplancius.nl/",
    "email": "",
    "instagram": "",
    "cuisine": "international",
    "opening_hours": "",
    "lat": 52.3678354,
    "lon": 4.9127949,
    "osm_id": 1083536032
  },
  {
    "name": "Bloem",
    "address": "Entrepotdok 36, 1018AD, Amsterdam",
    "phone": "+31 20 3300929",
    "website": "http://www.bloem36.nl",
    "email": "",
    "instagram": "",
    "cuisine": "",
    "opening_hours": "Tu-Su 16:00-23:00",
    "lat": 52.3688499,
    "lon": 4.9142406,
    "osm_id": 1083536034
  },
  {
    "name": "van Kerkwijk",
    "address": "Nes 41, 1012KC, Amsterdam",
    "phone": "",
    "website": "https://www.caferestaurantvankerkwijk.nl",
    "email": "",
    "instagram": "",
    "cuisine": "",
    "opening_hours": "",
    "lat": 52.3715399,
    "lon": 4.8937076,
    "osm_id": 1083659913
  },
  {
    "name": "Akitsu",
    "address": "Rozengracht 228-230, 1016SZ, Amsterdam",
    "phone": "+31 20 625 3254",
    "website": "https://www.akitsu-amsterdam.com/",
    "email": "",
    "instagram": "",
    "cuisine": "japanese",
    "opening_hours": "We-Su 18:00-11:30",
    "lat": 52.3722193,
    "lon": 4.8752152,
    "osm_id": 1089777272
  },
  {
    "name": "Du Monde Bar&Kitchen",
    "address": "Dorpsstraat 104, Amstelveen",
    "phone": "+31 20 345 3366",
    "website": "https://www.grandcafeoudedorp.nl",
    "email": "",
    "instagram": "",
    "cuisine": "french",
    "opening_hours": "",
    "lat": 52.300852,
    "lon": 4.846216,
    "osm_id": 1100008576
  },
  {
    "name": "d'Vijff Vlieghen",
    "address": "Spuistraat 294-302, 1012VX, Amsterdam",
    "phone": "",
    "website": "http://www.d-vijffvlieghen.com",
    "email": "",
    "instagram": "",
    "cuisine": "dutch",
    "opening_hours": "",
    "lat": 52.369578,
    "lon": 4.8886397,
    "osm_id": 1103394120
  },
  {
    "name": "Oma",
    "address": "Amsterdam",
    "phone": "",
    "website": "",
    "email": "",
    "instagram": "",
    "cuisine": "",
    "opening_hours": "",
    "lat": 52.3630587,
    "lon": 4.8851836,
    "osm_id": 1144504757
  },
  {
    "name": "1900",
    "address": "Hogeweg 48, 1098CE, Amsterdam",
    "phone": "+31 20 362 6329",
    "website": "https://barrestaurant1900.nl/",
    "email": "",
    "instagram": "@barrestaurant1900",
    "cuisine": "",
    "opening_hours": "Tu-Th,Su 11:00-23:00; Fr-Sa 11:00-24:00",
    "lat": 52.3548265,
    "lon": 4.9331684,
    "osm_id": 1165900114
  },
  {
    "name": "De Pizzabakkers",
    "address": "Copernicusstraat 49, 1098JE, Amsterdam",
    "phone": "+31 85 438 5999",
    "website": "https://www.depizzabakkers.nl/vestigingen/amsterdam-copernicusstraat/",
    "email": "",
    "instagram": "",
    "cuisine": "pizza",
    "opening_hours": "Mo-Su 16:00-21:00",
    "lat": 52.3553428,
    "lon": 4.9377539,
    "osm_id": 1167909861
  },
  {
    "name": "Maria",
    "address": "Zeedijk 55, 1012AS, Amsterdam",
    "phone": "",
    "website": "",
    "email": "",
    "instagram": "",
    "cuisine": "",
    "opening_hours": "",
    "lat": 52.3750398,
    "lon": 4.9011141,
    "osm_id": 1174575275
  },
  {
    "name": "Little Thai Prince",
    "address": "Zeedijk 33, Amsterdam",
    "phone": "",
    "website": "",
    "email": "",
    "instagram": "",
    "cuisine": "thai",
    "opening_hours": "",
    "lat": 52.3755716,
    "lon": 4.9010328,
    "osm_id": 1174575278
  },
  {
    "name": "Brasserie Flo",
    "address": "Amstelstraat 9, 1017DA, Amsterdam",
    "phone": "+31 20 890 4757",
    "website": "https://www.floamsterdam.nl",
    "email": "",
    "instagram": "",
    "cuisine": "french",
    "opening_hours": "",
    "lat": 52.3663295,
    "lon": 4.8982785,
    "osm_id": 1221258139
  },
  {
    "name": "Krua Thai",
    "address": "Amsterdam",
    "phone": "",
    "website": "https://kruathai.nl/",
    "email": "",
    "instagram": "",
    "cuisine": "thai",
    "opening_hours": "",
    "lat": 52.3681585,
    "lon": 4.8980317,
    "osm_id": 1221312739
  },
  {
    "name": "Kosmos",
    "address": "De Wittenkade 192, 1051AP, Amsterdam",
    "phone": "+31 20 400 3341",
    "website": "https://www.kosmosamsterdam.nl/",
    "email": "",
    "instagram": "",
    "cuisine": "",
    "opening_hours": "Wed-Thu 12:00-00:00; Fr-Sat 12:00-01:00; Su 12:00-22:00",
    "lat": 52.3812414,
    "lon": 4.8734487,
    "osm_id": 1222424006
  },
  {
    "name": "Toscana",
    "address": "Haarlemmerdijk 176, 1013HL, Amsterdam",
    "phone": "+31 20 334 6293",
    "website": "http://www.restaurant-toscana.nl/",
    "email": "",
    "instagram": "",
    "cuisine": "pizza",
    "opening_hours": "Mo-Th 16:00-23:00; Fr-Su 12:00-23:00",
    "lat": 52.3841202,
    "lon": 4.8848361,
    "osm_id": 1222424026
  },
  {
    "name": "a Volo!",
    "address": "Haarlemmerdijk 188-H, 1013JK, Amsterdam",
    "phone": "+31 20 337 7431",
    "website": "https://a-volo.nl/",
    "email": "",
    "instagram": "",
    "cuisine": "italian",
    "opening_hours": "We-Mo 12:00-18:00",
    "lat": 52.3842507,
    "lon": 4.8845468,
    "osm_id": 1222424034
  },
  {
    "name": "Café Nassau",
    "address": "De Wittenkade 105A, 1052AG, Amsterdam",
    "phone": "+31 20 684 3562",
    "website": "https://cafenassau.com/",
    "email": "info@cafenassau.com",
    "instagram": "@cafenassau",
    "cuisine": "",
    "opening_hours": "Mo 16:00-22:00; We,Th 16:00-23:00; Fr,Sa 12:00-23:00; Su 12:00-23:00",
    "lat": 52.3829251,
    "lon": 4.8771881,
    "osm_id": 1222424093
  },
  {
    "name": "Namaskar",
    "address": "Haarlemmerstraat 47, Amsterdam",
    "phone": "",
    "website": "http://www.namaskaramsterdam.nl/",
    "email": "",
    "instagram": "",
    "cuisine": "indian",
    "opening_hours": "",
    "lat": 52.3796886,
    "lon": 4.8931984,
    "osm_id": 1223236794
  },
  {
    "name": "Rangoli",
    "address": "Haarlemmerstraat 11, Amsterdam",
    "phone": "",
    "website": "http://www.rangoli.nl/",
    "email": "",
    "instagram": "",
    "cuisine": "indian",
    "opening_hours": "",
    "lat": 52.3794045,
    "lon": 4.8937259,
    "osm_id": 1223236797
  },
  {
    "name": "Il Tramezzino",
    "address": "Haarlemmerstraat 79, Amsterdam",
    "phone": "",
    "website": "https://iltramezzinoamsterdam.nl/",
    "email": "",
    "instagram": "@iltramezzinoamsterdam",
    "cuisine": "italian",
    "opening_hours": "Mo,We-Su 09:00-18:00",
    "lat": 52.3803114,
    "lon": 4.8914837,
    "osm_id": 1223236843
  },
  {
    "name": "Bistrot Neuf",
    "address": "Haarlemmerstraat 9, 1013EH, Amsterdam",
    "phone": "+31 20 400 3210",
    "website": "https://www.bistrotneuf.nl/",
    "email": "",
    "instagram": "",
    "cuisine": "french",
    "opening_hours": "Mo-Th 16:00-24:00; Fr-Su 12:00-24:00",
    "lat": 52.3793782,
    "lon": 4.8937715,
    "osm_id": 1223236858
  },
  {
    "name": "San Pedro",
    "address": "Haarlemmerstraat 83, Amsterdam",
    "phone": "",
    "website": "https://www.sanpedro.nl/",
    "email": "",
    "instagram": "",
    "cuisine": "steak",
    "opening_hours": "",
    "lat": 52.380348,
    "lon": 4.8913443,
    "osm_id": 1223236878
  },
  {
    "name": "Salsa Shop",
    "address": "Haarlemmerstraat 97, 1013EM, Amsterdam",
    "phone": "",
    "website": "",
    "email": "",
    "instagram": "",
    "cuisine": "mexican",
    "opening_hours": "",
    "lat": 52.3805781,
    "lon": 4.8907284,
    "osm_id": 1223236894
  },
  {
    "name": "Soup En Zo",
    "address": "Haarlemmerstraat 87, Amsterdam",
    "phone": "",
    "website": "https://soupenzo.nl",
    "email": "",
    "instagram": "@soupenzo",
    "cuisine": "soup;salad",
    "opening_hours": "Mo-Fr 11:00-20:00; Sa 11:00-19:00; Su 12:00-19:00",
    "lat": 52.3803846,
    "lon": 4.891205,
    "osm_id": 1223236895
  },
  {
    "name": "Kruabuppha",
    "address": "Van Woustraat 241, 1074AS, Amsterdam",
    "phone": "+31 20 670 2103",
    "website": "https://krua-buppha.nl",
    "email": "info@krua-buppha.nl",
    "instagram": "",
    "cuisine": "thai",
    "opening_hours": "Mo,We-Su 17:00-21:30; Tu off; We[1,2] off",
    "lat": 52.3495403,
    "lon": 4.904308,
    "osm_id": 1245716249
  },
  {
    "name": "Pica Pica",
    "address": "Camperstraat 48-50, 1091AH, Amsterdam",
    "phone": "",
    "website": "http://www.restaurantpicapica.nl",
    "email": "",
    "instagram": "",
    "cuisine": "spanish",
    "opening_hours": "Mo-Th 09:00-15:00; Fr-Su 09:00-18:00",
    "lat": 52.3578023,
    "lon": 4.9134058,
    "osm_id": 1261566508
  },
  {
    "name": "Hearth",
    "address": "Camperstraat 24-26, 1091AG, Amsterdam",
    "phone": "+31 6 19284170",
    "website": "https://hearthamsterdam.nl/",
    "email": "hearthamsterdam@gmail.com",
    "instagram": "",
    "cuisine": "",
    "opening_hours": "",
    "lat": 52.3584584,
    "lon": 4.9129258,
    "osm_id": 1262086558
  },
  {
    "name": "Daalder",
    "address": "Postjesweg 1, 1057DT, Amsterdam",
    "phone": "+31 20 624 8864",
    "website": "https://daalderamsterdam.nl/",
    "email": "reserverendaalder@daalderculinair.com",
    "instagram": "",
    "cuisine": "",
    "opening_hours": "",
    "lat": 52.3641089,
    "lon": 4.8590875,
    "osm_id": 1275764717
  },
  {
    "name": "Merkelbach",
    "address": "Middenweg 72, 1097BS, Amsterdam",
    "phone": "+31 20 665 0880",
    "website": "https://restaurantmerkelbach.nl/",
    "email": "",
    "instagram": "@restaurant_merkelbach",
    "cuisine": "",
    "opening_hours": "",
    "lat": 52.3512241,
    "lon": 4.9334141,
    "osm_id": 1299980492
  },
  {
    "name": "Wonny's Eethuis",
    "address": "Maritzstraat 28, 1091KW, Amsterdam",
    "phone": "",
    "website": "",
    "email": "",
    "instagram": "",
    "cuisine": "",
    "opening_hours": "",
    "lat": 52.3547005,
    "lon": 4.9197846,
    "osm_id": 1300002688
  },
  {
    "name": "Warung Domburg",
    "address": "Vrolikstraat 323, 1091VE, Amsterdam",
    "phone": "+31 20 665 6458",
    "website": "",
    "email": "",
    "instagram": "@warungdomburg",
    "cuisine": "asian",
    "opening_hours": "Su-Th 21:00-01:00, Fr,Sa 21:00-03:00",
    "lat": 52.3564131,
    "lon": 4.9183693,
    "osm_id": 1300002722
  },
  {
    "name": "Sham",
    "address": "Borneosteiger 1, Amsterdam",
    "phone": "+31 20 363 9036",
    "website": "http://www.restaurantsham.nl/oost/",
    "email": "oost@restaurantsham.nl",
    "instagram": "",
    "cuisine": "syrian",
    "opening_hours": "Mo-Su 12:00-22:00",
    "lat": 52.3697596,
    "lon": 4.9368846,
    "osm_id": 1306195371
  },
  {
    "name": "Royal San Kong",
    "address": "Dorpsstraat 57, Amstelveen",
    "phone": "+31 20 647 7902",
    "website": "https://www.royalsankong.nl",
    "email": "",
    "instagram": "",
    "cuisine": "chinese",
    "opening_hours": "",
    "lat": 52.3018289,
    "lon": 4.8462001,
    "osm_id": 1308856137
  },
  {
    "name": "Saravanaa Bhavan",
    "address": "Stadhouderskade 123-124, 1074AV, Amsterdam",
    "phone": "+31 20 786 4880",
    "website": "https://saravanaa-bhavan.nl/",
    "email": "",
    "instagram": "",
    "cuisine": "indian",
    "opening_hours": "Mo-Tu 18:00-22:00; We-Fr 11:00-22:00; Sa-Su 10:00-22:00",
    "lat": 52.3577036,
    "lon": 4.8995158,
    "osm_id": 1310554569
  },
  {
    "name": "Ristorante Isola Bella",
    "address": "Thorbeckeplein 7-9, 1017CS, Amsterdam",
    "phone": "+31 20 626 9582",
    "website": "https://restaurantisolabella.nl/",
    "email": "",
    "instagram": "",
    "cuisine": "italian",
    "opening_hours": "",
    "lat": 52.3653391,
    "lon": 4.8961475,
    "osm_id": 1310911717
  },
  {
    "name": "Stoop & Stoop Eetcafé",
    "address": "Amsterdam",
    "phone": "",
    "website": "https://www.stoopenstoop.nl/",
    "email": "",
    "instagram": "",
    "cuisine": "",
    "opening_hours": "",
    "lat": 52.3642795,
    "lon": 4.8838952,
    "osm_id": 1310911734
  },
  {
    "name": "Pancake Corner Restaurant",
    "address": "Amsterdam",
    "phone": "",
    "website": "",
    "email": "",
    "instagram": "",
    "cuisine": "pancake",
    "opening_hours": "",
    "lat": 52.3640344,
    "lon": 4.88345,
    "osm_id": 1310911753
  },
  {
    "name": "Palladium Restaurant Club",
    "address": "Kleine-Gartmanplantsoen 7, 1017RP, Amsterdam",
    "phone": "+31 20 620 5536",
    "website": "https://www.palladiumamsterdam.nl/",
    "email": "",
    "instagram": "@palladiumamsterdam",
    "cuisine": "",
    "opening_hours": "Mo-Th 10:00-01:00; Fr-Sa 10:00-03:00",
    "lat": 52.3635772,
    "lon": 4.8835286,
    "osm_id": 1310911760
  },
  {
    "name": "Eetcafé 't Gasthuys",
    "address": "Grimburgwal 7-H, 1012GA, Amsterdam",
    "phone": "",
    "website": "https://www.gasthuys.nl/",
    "email": "",
    "instagram": "",
    "cuisine": "",
    "opening_hours": "",
    "lat": 52.3693922,
    "lon": 4.8935292,
    "osm_id": 1310974758
  },
  {
    "name": "Rancho Steakhouse",
    "address": "Amsterdam",
    "phone": "",
    "website": "",
    "email": "",
    "instagram": "",
    "cuisine": "",
    "opening_hours": "",
    "lat": 52.3688767,
    "lon": 4.8911573,
    "osm_id": 1310974776
  },
  {
    "name": "Flore",
    "address": "Nieuwe Doelenstraat 2-14, 1012CP, Amsterdam",
    "phone": "+31 20 531 1619",
    "website": "https://restaurantflore.com",
    "email": "",
    "instagram": "@restaurant.flore",
    "cuisine": "",
    "opening_hours": "We-Th 18:30-22:00; Fr-Sa 12:00-16:00, 18:30-22:00",
    "lat": 52.3674539,
    "lon": 4.8943025,
    "osm_id": 1310974815
  },
  {
    "name": "De Duvel",
    "address": "Eerste Van der Helststraat 59-H, 1073AD, Amsterdam",
    "phone": "+31 20 6757517",
    "website": "https://www.deduvel.nl",
    "email": "info@deduvel.nl",
    "instagram": "",
    "cuisine": "",
    "opening_hours": "",
    "lat": 52.3547999,
    "lon": 4.8936321,
    "osm_id": 1315135104
  },
  {
    "name": "Moeders",
    "address": "Rozengracht 251, 1016SX, Amsterdam",
    "phone": "+31 20 626 7957",
    "website": "https://www.moeders.com",
    "email": "info@moeders.com",
    "instagram": "",
    "cuisine": "regional",
    "opening_hours": "Mo-Fr 17:00-00:00; Sa-Su 12:00-00:00",
    "lat": 52.3718427,
    "lon": 4.8749777,
    "osm_id": 1328355092
  },
  {
    "name": "Blue Dragon",
    "address": "Marie Heinekenplein 4, 1072MH, Amsterdam",
    "phone": "",
    "website": "",
    "email": "",
    "instagram": "",
    "cuisine": "sushi",
    "opening_hours": "",
    "lat": 52.3574253,
    "lon": 4.8911961,
    "osm_id": 1337621655
  },
  {
    "name": "Radijs",
    "address": "Jan Evertsenstraat 41hs, 1057BM, Amsterdam",
    "phone": "+31 20 751 3232",
    "website": "https://radijs-amsterdam.nl",
    "email": "ikwil@radijs-amsterdam.nl",
    "instagram": "",
    "cuisine": "",
    "opening_hours": "Su-Th 12:00-01:00; Fr-Sa 12:00-02:00",
    "lat": 52.3710583,
    "lon": 4.8571118,
    "osm_id": 1338094260
  },
  {
    "name": "Ron Gastrobar",
    "address": "Sophialaan 55, 1075BP, Amsterdam",
    "phone": "+31 20 496 1943",
    "website": "https://rongastrobar.nl/restaurants/ron-gastrobar",
    "email": "info@rongastrobar.nl",
    "instagram": "@rongastrobar",
    "cuisine": "international",
    "opening_hours": "Mo-Su 12:00-22:30",
    "lat": 52.3521264,
    "lon": 4.8567933,
    "osm_id": 1339610641
  },
  {
    "name": "Casa Peru",
    "address": "Leidsegracht 68, 1016CP, Amsterdam",
    "phone": "",
    "website": "https://www.casaperu.nl",
    "email": "",
    "instagram": "",
    "cuisine": "peruvian",
    "opening_hours": "17:30-24:00",
    "lat": 52.3664389,
    "lon": 4.8829961,
    "osm_id": 1340087183
  },
  {
    "name": "Kagetsu",
    "address": "Hartenstraat 17, Amsterdam",
    "phone": "",
    "website": "https://www.kagetsu.nl",
    "email": "",
    "instagram": "",
    "cuisine": "japanese",
    "opening_hours": "",
    "lat": 52.3722455,
    "lon": 4.8860197,
    "osm_id": 1348523677
  },
  {
    "name": "De Italiaan",
    "address": "Bosboom Toussaintstraat 29, 1054AN, Amsterdam",
    "phone": "",
    "website": "https://www.deitaliaan.com/",
    "email": "",
    "instagram": "",
    "cuisine": "italian",
    "opening_hours": "Mo-Fr 17:15-24:00; Sa-Su 12:30-24:00",
    "lat": 52.3654913,
    "lon": 4.8763748,
    "osm_id": 1349087394
  },
  {
    "name": "La Bruschetta",
    "address": "Jean Desmetstraat 121, 1087DH, Amsterdam",
    "phone": "+31 20 226 8308",
    "website": "https://bruschetta.amsterdam",
    "email": "",
    "instagram": "",
    "cuisine": "italian",
    "opening_hours": "Mo-Su 16:00-22:00",
    "lat": 52.3593615,
    "lon": 4.9949425,
    "osm_id": 1350283575
  },
  {
    "name": "Zomerlust",
    "address": "Burgemeester De Vlugtlaan 156, 1063BS, Amsterdam",
    "phone": "",
    "website": "",
    "email": "",
    "instagram": "",
    "cuisine": "international",
    "opening_hours": "",
    "lat": 52.381289,
    "lon": 4.8239366,
    "osm_id": 1380924446
  },
  {
    "name": "Hannekes Boom",
    "address": "Dijksgracht 4, 1019BS, Amsterdam",
    "phone": "+31 20 419 9820",
    "website": "https://hannekesboom.nl/",
    "email": "",
    "instagram": "",
    "cuisine": "international",
    "opening_hours": "Mo-Th,Su 11:00-01:00; Fr-Sa 11:00-03:00",
    "lat": 52.3762931,
    "lon": 4.9115789,
    "osm_id": 1386079220
  },
  {
    "name": "Beyoğlu",
    "address": "Eerste Oosterparkstraat 251B, 1091HA, Amsterdam",
    "phone": "+31 20 786 1148",
    "website": "https://beyoglurestaurant.nl/",
    "email": "info@beyoglurestaurant.nl",
    "instagram": "@beyogluamsterdam",
    "cuisine": "mediterranean;turkish",
    "opening_hours": "Mo-Su 14:00-23:00",
    "lat": 52.3572653,
    "lon": 4.913725,
    "osm_id": 1419479007
  },
  {
    "name": "Marhaba",
    "address": "Eerste Oosterparkstraat 123BG, 1091GX, Amsterdam",
    "phone": "+31 20 468 8330",
    "website": "https://marhaba-amsterdam.nl/",
    "email": "",
    "instagram": "",
    "cuisine": "moroccan",
    "opening_hours": "",
    "lat": 52.3567824,
    "lon": 4.9118375,
    "osm_id": 1419479008
  },
  {
    "name": "Landmarkt Restaurant",
    "address": "Amsterdam",
    "phone": "+31 20 490 4366",
    "website": "https://www.landmarkt.nl",
    "email": "",
    "instagram": "",
    "cuisine": "",
    "opening_hours": "Mo-Tu 10:00-17:00; We-Su 10:00-22:00",
    "lat": 52.3809218,
    "lon": 4.9686461,
    "osm_id": 1421161767
  },
  {
    "name": "de Oesterbar",
    "address": "Amsterdam",
    "phone": "",
    "website": "https://www.oesterbar.nl/",
    "email": "",
    "instagram": "",
    "cuisine": "fish",
    "opening_hours": "",
    "lat": 52.3647013,
    "lon": 4.8827741,
    "osm_id": 1427417020
  },
  {
    "name": "Zenzero Pizzeria",
    "address": "Gerard Callenburgstraat 1, 1055TV, Amsterdam",
    "phone": "+393923732223",
    "website": "https://zenzeropizzeria.com/",
    "email": "Zenzeropizzeriaamsterdam@gmail.com",
    "instagram": "",
    "cuisine": "italian;pizza",
    "opening_hours": "",
    "lat": 52.377487,
    "lon": 4.8595561,
    "osm_id": 1432237080
  },
  {
    "name": "Sortie",
    "address": "Jan de Jonghkade 82, 1063MJ, Amsterdam",
    "phone": "",
    "website": "https://sortierestaurant.nl/",
    "email": "",
    "instagram": "",
    "cuisine": "turkish",
    "opening_hours": "09:00 - 01:00",
    "lat": 52.3791955,
    "lon": 4.8227756,
    "osm_id": 1439522175
  },
  {
    "name": "Antonio's Restaurante",
    "address": "Amsterdam",
    "phone": "",
    "website": "",
    "email": "",
    "instagram": "",
    "cuisine": "italian",
    "opening_hours": "",
    "lat": 52.3636482,
    "lon": 4.88489,
    "osm_id": 1444572916
  },
  {
    "name": "Bojo",
    "address": "Lange Leidsedwarsstraat 49, 1017NG, Amsterdam",
    "phone": "",
    "website": "https://www.bojo.nl/",
    "email": "",
    "instagram": "",
    "cuisine": "indonesian",
    "opening_hours": "Mo-Su 16:00-24:00",
    "lat": 52.3639322,
    "lon": 4.8847921,
    "osm_id": 1444572917
  },
  {
    "name": "Chicano's",
    "address": "Amsterdam",
    "phone": "",
    "website": "",
    "email": "",
    "instagram": "",
    "cuisine": "mexican",
    "opening_hours": "",
    "lat": 52.363749,
    "lon": 4.8847449,
    "osm_id": 1444572921
  },
  {
    "name": "De blauwe Hollander",
    "address": "Amsterdam",
    "phone": "",
    "website": "https://www.deblauwehollander.nl",
    "email": "",
    "instagram": "",
    "cuisine": "regional",
    "opening_hours": "",
    "lat": 52.3635484,
    "lon": 4.8847235,
    "osm_id": 1444572927
  },
  {
    "name": "El Rancho",
    "address": "Amsterdam",
    "phone": "",
    "website": "",
    "email": "",
    "instagram": "",
    "cuisine": "argentinian",
    "opening_hours": "",
    "lat": 52.3638816,
    "lon": 4.8845402,
    "osm_id": 1444572935
  },
  {
    "name": "Greek",
    "address": "Amsterdam",
    "phone": "",
    "website": "",
    "email": "",
    "instagram": "",
    "cuisine": "greek",
    "opening_hours": "",
    "lat": 52.3643571,
    "lon": 4.8841943,
    "osm_id": 1444572937
  },
  {
    "name": "Mythos",
    "address": "Amsterdam",
    "phone": "",
    "website": "https://mythosgreek.nl/",
    "email": "",
    "instagram": "",
    "cuisine": "argentinian",
    "opening_hours": "We-Su 15:30-23:30; Mo 15:30-23:00",
    "lat": 52.3642942,
    "lon": 4.8842525,
    "osm_id": 1444572950
  },
  {
    "name": "Miduo Chinese Cuisine",
    "address": "Amsterdam",
    "phone": "",
    "website": "",
    "email": "",
    "instagram": "",
    "cuisine": "",
    "opening_hours": "",
    "lat": 52.3642096,
    "lon": 4.8843814,
    "osm_id": 1444572951
  },
  {
    "name": "Mykonos",
    "address": "Amsterdam",
    "phone": "",
    "website": "",
    "email": "",
    "instagram": "",
    "cuisine": "greek",
    "opening_hours": "",
    "lat": 52.3640102,
    "lon": 4.8846815,
    "osm_id": 1444572955
  },
  {
    "name": "O' Sole Mio",
    "address": "Lange Leidsedwarsstraat 19, 1017NE, Amsterdam",
    "phone": "+31 20 623 7360",
    "website": "https://www.osolemio.nl/",
    "email": "info@osolemio.nl",
    "instagram": "",
    "cuisine": "italian",
    "opening_hours": "Mo-Fr 15:00 - 23:00; Sa-Su 13:00 - 23:00",
    "lat": 52.3644198,
    "lon": 4.8841433,
    "osm_id": 1444572958
  },
  {
    "name": "Peppino",
    "address": "Amsterdam",
    "phone": "",
    "website": "https://www.ristorantepeppino.nl",
    "email": "",
    "instagram": "",
    "cuisine": "italian",
    "opening_hours": "",
    "lat": 52.3634912,
    "lon": 4.8846075,
    "osm_id": 1444572961
  },
  {
    "name": "Pisa",
    "address": "Amsterdam",
    "phone": "",
    "website": "",
    "email": "",
    "instagram": "",
    "cuisine": "italian",
    "opening_hours": "",
    "lat": 52.3644852,
    "lon": 4.8839811,
    "osm_id": 1444572967
  },
  {
    "name": "Royal Thai",
    "address": "Lange Leidsedwarsstraat 94, 1017NM, Amsterdam",
    "phone": "+31 20 626 7261",
    "website": "https://www.royal-thai.nl/",
    "email": "info@royal-thai.nl",
    "instagram": "",
    "cuisine": "thai;seafood",
    "opening_hours": "Mo-Fr 15:00-24:00; Sa,Su 12:00-24:00",
    "lat": 52.3641259,
    "lon": 4.8842311,
    "osm_id": 1444572969
  },
  {
    "name": "Zorba de Griek",
    "address": "Amsterdam",
    "phone": "",
    "website": "",
    "email": "",
    "instagram": "",
    "cuisine": "greek",
    "opening_hours": "",
    "lat": 52.3637257,
    "lon": 4.8851083,
    "osm_id": 1444572982
  },
  {
    "name": "Do Brasil",
    "address": "Lange Leidsedwarsstraat 86, 1017NM, Amsterdam",
    "phone": "",
    "website": "https://www.leidseplein.amsterdam/restaurant/restaurant-do-brasil",
    "email": "",
    "instagram": "",
    "cuisine": "brazilian",
    "opening_hours": "",
    "lat": 52.3641938,
    "lon": 4.8840332,
    "osm_id": 1444572983
  },
  {
    "name": "Utrechtsedwarstafel",
    "address": "Utrechtsedwarsstraat 107-109, 1017WD, Amsterdam",
    "phone": "+31 6 2044 7559",
    "website": "https://www.utrechtsedwarstafel.com/",
    "email": "",
    "instagram": "@deutrechtsedwarstafel",
    "cuisine": "",
    "opening_hours": "",
    "lat": 52.3618245,
    "lon": 4.9004947,
    "osm_id": 1453672123
  },
  {
    "name": "Ceppi’s",
    "address": "Amsterdam",
    "phone": "",
    "website": "https://www.ceppis.com/",
    "email": "",
    "instagram": "@ceppis.trattoria",
    "cuisine": "regional",
    "opening_hours": "",
    "lat": 52.3628586,
    "lon": 4.8850519,
    "osm_id": 1477529611
  },
  {
    "name": "El Patio Granada",
    "address": "Amsterdam",
    "phone": "",
    "website": "https://www.granadarestaurant.nl",
    "email": "",
    "instagram": "",
    "cuisine": "",
    "opening_hours": "",
    "lat": 52.3635176,
    "lon": 4.8854166,
    "osm_id": 1477529612
  },
  {
    "name": "Mayur",
    "address": "Korte Leidsedwarsstraat 203, 1017RB, Amsterdam",
    "phone": "+31 20 623 2142",
    "website": "https://www.mayur.nl",
    "email": "",
    "instagram": "",
    "cuisine": "indian",
    "opening_hours": "",
    "lat": 52.3623426,
    "lon": 4.8861759,
    "osm_id": 1477529632
  },
  {
    "name": "In de Buurt",
    "address": "Amsterdam",
    "phone": "+31 20 616 4787",
    "website": "",
    "email": "",
    "instagram": "",
    "cuisine": "",
    "opening_hours": "",
    "lat": 52.3630261,
    "lon": 4.8845121,
    "osm_id": 1477529634
  },
  {
    "name": "Porto Carrara",
    "address": "Amsterdam",
    "phone": "",
    "website": "https://www.portocarrara.nl/",
    "email": "",
    "instagram": "",
    "cuisine": "pizza",
    "opening_hours": "",
    "lat": 52.3634013,
    "lon": 4.8852647,
    "osm_id": 1477529651
  },
  {
    "name": "Sherpa",
    "address": "Korte Leidsedwarsstraat 58, 1017RD, Amsterdam",
    "phone": "",
    "website": "https://www.sherparestaurant.nl",
    "email": "",
    "instagram": "@sherparestaurant",
    "cuisine": "nepalese;tibetan;indian",
    "opening_hours": "Mo-Su 16:00-23:00",
    "lat": 52.3631367,
    "lon": 4.8847519,
    "osm_id": 1477529657
  },
  {
    "name": "Taste of Culture",
    "address": "Korte Leidsedwarsstraat 139-141, 1017PZ, Amsterdam",
    "phone": "+31 20 427 1136",
    "website": "http://tasteofculture.nl",
    "email": "",
    "instagram": "",
    "cuisine": "chinese",
    "opening_hours": "Su-Th 17:30-01:00; Fr-Sa 17:30-02:00",
    "lat": 52.3631049,
    "lon": 4.8851368,
    "osm_id": 1477529671
  },
  {
    "name": "El Vino",
    "address": "Lange Leidsedwarsstraat 54, Amsterdam",
    "phone": "",
    "website": "",
    "email": "",
    "instagram": "",
    "cuisine": "mexican",
    "opening_hours": "",
    "lat": 52.3639005,
    "lon": 4.8848889,
    "osm_id": 1483619826
  },
  {
    "name": "Bombay inn",
    "address": "Amsterdam",
    "phone": "",
    "website": "",
    "email": "",
    "instagram": "",
    "cuisine": "indian",
    "opening_hours": "",
    "lat": 52.3651399,
    "lon": 4.8826496,
    "osm_id": 1486109761
  },
  {
    "name": "Granada",
    "address": "Amsterdam",
    "phone": "",
    "website": "https://www.granadarestaurant.nl",
    "email": "",
    "instagram": "",
    "cuisine": "",
    "opening_hours": "",
    "lat": 52.3636437,
    "lon": 4.8853422,
    "osm_id": 1486109769
  },
  {
    "name": "Japan Inn",
    "address": "Amsterdam",
    "phone": "",
    "website": "https://www.japaninn.nl",
    "email": "",
    "instagram": "",
    "cuisine": "japanese",
    "opening_hours": "",
    "lat": 52.3638952,
    "lon": 4.8854331,
    "osm_id": 1486109772
  },
  {
    "name": "Los Argentinos",
    "address": "Amsterdam",
    "phone": "",
    "website": "http://www.losargentinos.nl",
    "email": "",
    "instagram": "",
    "cuisine": "",
    "opening_hours": "",
    "lat": 52.3637143,
    "lon": 4.8854787,
    "osm_id": 1486109775
  },
  {
    "name": "Moshi Moshi",
    "address": "Amsterdam",
    "phone": "",
    "website": "",
    "email": "",
    "instagram": "",
    "cuisine": "japanese",
    "opening_hours": "",
    "lat": 52.36368,
    "lon": 4.8854104,
    "osm_id": 1486109779
  },
  {
    "name": "The Guru of India",
    "address": "Amsterdam",
    "phone": "",
    "website": "",
    "email": "",
    "instagram": "",
    "cuisine": "indian",
    "opening_hours": "",
    "lat": 52.3650182,
    "lon": 4.8828626,
    "osm_id": 1486109783
  },
  {
    "name": "Phutakun",
    "address": "Reguliersdwarsstraat 11, 1017BJ, Amsterdam",
    "phone": "+31 20 428 1887",
    "website": "https://phutakun.nl",
    "email": "",
    "instagram": "",
    "cuisine": "thai",
    "opening_hours": "Su, Mo, We-Fr 15:00-22:30, Sa 14:00-22:30",
    "lat": 52.366767,
    "lon": 4.8896227,
    "osm_id": 1492346704
  },
  {
    "name": "Rossini",
    "address": "Reguliersdwarsstraat 5, 1017BJ, Amsterdam",
    "phone": "",
    "website": "https://rossini-amsterdam.nl/",
    "email": "",
    "instagram": "",
    "cuisine": "italian",
    "opening_hours": "",
    "lat": 52.3668154,
    "lon": 4.8894711,
    "osm_id": 1492346705
  },
  {
    "name": "Shisho",
    "address": "Rembrandtplein 47, 1017CT, Amsterdam",
    "phone": "",
    "website": "https://shiso.nl/",
    "email": "",
    "instagram": "",
    "cuisine": "sushi",
    "opening_hours": "Mo-Su 13:00-22:00; Th-Su 22:00-22:30",
    "lat": 52.366149,
    "lon": 4.897694,
    "osm_id": 1504115535
  },
  {
    "name": "Global Streetfood",
    "address": "Surinamestraat 9-H, 1058GJ, Amsterdam",
    "phone": "+31 20 7860711",
    "website": "",
    "email": "",
    "instagram": "",
    "cuisine": "",
    "opening_hours": "",
    "lat": 52.357975,
    "lon": 4.8539329,
    "osm_id": 1538261150
  },
  {
    "name": "Sranang Makmur",
    "address": "Wijttenbachstraat 10, 1093HR, Amsterdam",
    "phone": "",
    "website": "",
    "email": "",
    "instagram": "",
    "cuisine": "asian",
    "opening_hours": "",
    "lat": 52.360026,
    "lon": 4.9259729,
    "osm_id": 1550824348
  },
  {
    "name": "Master Fisher",
    "address": "Sumatrastraat 98, 1094NJ, Amsterdam",
    "phone": "",
    "website": "",
    "email": "",
    "instagram": "",
    "cuisine": "seafood",
    "opening_hours": "Mo-Su 10:00-20:30",
    "lat": 52.3615654,
    "lon": 4.9360954,
    "osm_id": 1550842307
  },
  {
    "name": "De Kompaszaal",
    "address": "KNSM-laan 311, 1019LE, Amsterdam",
    "phone": "",
    "website": "https://www.kompaszaal.nl/",
    "email": "",
    "instagram": "",
    "cuisine": "international",
    "opening_hours": "",
    "lat": 52.377159,
    "lon": 4.9400559,
    "osm_id": 1556462429
  },
  {
    "name": "De Nieuwe KHL",
    "address": "Amsterdam",
    "phone": "",
    "website": "https://denieuwekhl.nl/",
    "email": "",
    "instagram": "",
    "cuisine": "international",
    "opening_hours": "Mo-Su 15:00-00:00",
    "lat": 52.3740065,
    "lon": 4.9363092,
    "osm_id": 1556479637
  },
  {
    "name": "Het Pompstation",
    "address": "Zeeburgerdijk 52, 1094AE, Amsterdam",
    "phone": "+31 20 692 2888",
    "website": "https://pompstation.nu",
    "email": "info@pompstation.nu",
    "instagram": "",
    "cuisine": "",
    "opening_hours": "Tu-Sa 18:00-22:30",
    "lat": 52.3659064,
    "lon": 4.9334946,
    "osm_id": 1556484511
  },
  {
    "name": "VRR",
    "address": "Conradstraat 471, 1018NE, Amsterdam",
    "phone": "+31 6 11122373",
    "website": "https://vrr.rest",
    "email": "",
    "instagram": "",
    "cuisine": "",
    "opening_hours": "",
    "lat": 52.3719675,
    "lon": 4.9313951,
    "osm_id": 1556487107
  },
  {
    "name": "Les Zazous",
    "address": "Piraeusplein 59, 1019NM, Amsterdam",
    "phone": "+31 20 854 3361",
    "website": "https://leszazous.nl/",
    "email": "",
    "instagram": "",
    "cuisine": "french",
    "opening_hours": "Mo,We-Su 12:00-15:00,17:30-21:00",
    "lat": 52.3765161,
    "lon": 4.9415271,
    "osm_id": 1566951808
  },
  {
    "name": "Meram",
    "address": "Meer en Vaart 175, 1068LA, Amsterdam",
    "phone": "+31 20 410 1452",
    "website": "https://meram.nl/amsterdam-osdorp",
    "email": "",
    "instagram": "",
    "cuisine": "turkish",
    "opening_hours": "",
    "lat": 52.3602051,
    "lon": 4.8081004,
    "osm_id": 1578160163
  },
  {
    "name": "De Reiger",
    "address": "Amsterdam",
    "phone": "",
    "website": "",
    "email": "",
    "instagram": "",
    "cuisine": "international",
    "opening_hours": "",
    "lat": 52.3757295,
    "lon": 4.8825261,
    "osm_id": 1578160226
  },
  {
    "name": "Mister Chen Cha House",
    "address": "Amsterdam",
    "phone": "",
    "website": "",
    "email": "",
    "instagram": "",
    "cuisine": "chinese",
    "opening_hours": "",
    "lat": 52.359298,
    "lon": 4.9254798,
    "osm_id": 1578734064
  },
  {
    "name": "Poké Perfect",
    "address": "Amsterdam",
    "phone": "",
    "website": "",
    "email": "",
    "instagram": "",
    "cuisine": "",
    "opening_hours": "Mo-Su 11:30-21:00",
    "lat": 52.3595338,
    "lon": 4.9253242,
    "osm_id": 1578739479
  },
  {
    "name": "Westergasterras",
    "address": "Klönneplein 4-6, Amsterdam",
    "phone": "+31 20 684 8496",
    "website": "https://www.westergasterras.nl/",
    "email": "",
    "instagram": "@westergasterras",
    "cuisine": "",
    "opening_hours": "",
    "lat": 52.3871553,
    "lon": 4.8697708,
    "osm_id": 1585856787
  },
  {
    "name": "Caramba!",
    "address": "Amsterdam",
    "phone": "",
    "website": "",
    "email": "",
    "instagram": "",
    "cuisine": "mexican",
    "opening_hours": "Su-Fr 17:30-22:00+; Sa 11:00-22:00+",
    "lat": 52.3798108,
    "lon": 4.8808038,
    "osm_id": 1588286502
  },
  {
    "name": "Long Pura",
    "address": "Amsterdam",
    "phone": "",
    "website": "",
    "email": "",
    "instagram": "",
    "cuisine": "indonesian",
    "opening_hours": "",
    "lat": 52.3736441,
    "lon": 4.8811373,
    "osm_id": 1588328789
  },
  {
    "name": "Chow",
    "address": "Amsterdam",
    "phone": "",
    "website": "",
    "email": "",
    "instagram": "",
    "cuisine": "asian",
    "opening_hours": "",
    "lat": 52.373391,
    "lon": 4.8793053,
    "osm_id": 1590738324
  },
  {
    "name": "Wilde Zwijnen",
    "address": "Amsterdam",
    "phone": "",
    "website": "",
    "email": "",
    "instagram": "",
    "cuisine": "regional",
    "opening_hours": "",
    "lat": 52.3635789,
    "lon": 4.9403914,
    "osm_id": 1595364823
  },
  {
    "name": "La Due Sicilie",
    "address": "President Steynstraat 7 HS, 1091NB, Amsterdam",
    "phone": "",
    "website": "",
    "email": "",
    "instagram": "",
    "cuisine": "",
    "opening_hours": "",
    "lat": 52.3512642,
    "lon": 4.9163435,
    "osm_id": 1595389728
  },
  {
    "name": "Pancake Corner",
    "address": "Kleine-Gartmanplantsoen 51, 1017RP, Amsterdam",
    "phone": "+31 20 627 6303",
    "website": "https://pancake-corner.nl",
    "email": "",
    "instagram": "",
    "cuisine": "",
    "opening_hours": "Mo-Su 09:00-22:00",
    "lat": 52.3628007,
    "lon": 4.8838974,
    "osm_id": 1595594894
  },
  {
    "name": "Azur Bleu",
    "address": "Amsterdam",
    "phone": "",
    "website": "",
    "email": "",
    "instagram": "",
    "cuisine": "tapas",
    "opening_hours": "",
    "lat": 52.3742612,
    "lon": 4.8727615,
    "osm_id": 1598670231
  },
  {
    "name": "Orontes West",
    "address": "Hugo de Grootplein 8-H, Amsterdam",
    "phone": "",
    "website": "",
    "email": "",
    "instagram": "",
    "cuisine": "mediterranean",
    "opening_hours": "",
    "lat": 52.3748,
    "lon": 4.8733,
    "osm_id": 1598670234
  },
  {
    "name": "Marits",
    "address": "Andreas Bonnstraat 34H, 1091BA, Amsterdam",
    "phone": "+31 20 776 3864",
    "website": "https://www.maritshuiskamerrestaurant.nl",
    "email": "info@maritshuiskamerrestaurant.nl",
    "instagram": "",
    "cuisine": "",
    "opening_hours": "",
    "lat": 52.3593021,
    "lon": 4.9137126,
    "osm_id": 1619441662
  },
  {
    "name": "Queen of Sheba",
    "address": "Amsterdam",
    "phone": "",
    "website": "",
    "email": "",
    "instagram": "",
    "cuisine": "",
    "opening_hours": "Mo-Su 17:00-23:00",
    "lat": 52.3836547,
    "lon": 4.8789597,
    "osm_id": 1628629821
  },
  {
    "name": "MKZ",
    "address": "Eerste Schinkelstraat 16, 1075TX, Amsterdam",
    "phone": "+31 20 679 0712",
    "website": "https://binnenpret.org/mkz/",
    "email": "mkz@binnenpret.org",
    "instagram": "",
    "cuisine": "",
    "opening_hours": "Tu,Th-Sa 19:00+",
    "lat": 52.3539315,
    "lon": 4.8542756,
    "osm_id": 1641002657
  },
  {
    "name": "Wagamama",
    "address": "Zuidplein 12, 1077XV, Amsterdam",
    "phone": "+31 20 620 3032",
    "website": "https://www.wagamama.nl/restaurants/zuidplein",
    "email": "",
    "instagram": "",
    "cuisine": "asian",
    "opening_hours": "Mo-Fr 11:30-17:00; Sa-Su 13:00-17:00",
    "lat": 52.339909,
    "lon": 4.872697,
    "osm_id": 1657724267
  },
  {
    "name": "Pomodoro",
    "address": "Jan Pieter Heijestraat 128, 1054MH, Amsterdam",
    "phone": "",
    "website": "",
    "email": "",
    "instagram": "",
    "cuisine": "",
    "opening_hours": "",
    "lat": 52.362435,
    "lon": 4.8640063,
    "osm_id": 1686808195
  },
  {
    "name": "Cham So Good",
    "address": "Overtoom 464A, 1054JX, Amsterdam",
    "phone": "+31 6 41389422",
    "website": "https://chamsogood.nl/",
    "email": "",
    "instagram": "",
    "cuisine": "korean",
    "opening_hours": "Mo 16:00-19:30; Tu-Sa 12:00-19:30; Su off",
    "lat": 52.3595183,
    "lon": 4.8614149,
    "osm_id": 1688832074
  },
  {
    "name": "De Zingende Zwaan",
    "address": "Rhijnvis Feithstraat 43, Amsterdam",
    "phone": "",
    "website": "",
    "email": "",
    "instagram": "",
    "cuisine": "",
    "opening_hours": "Mo-Su 17:00-24:00",
    "lat": 52.3597871,
    "lon": 4.8599718,
    "osm_id": 1688834785
  },
  {
    "name": "Lalibela",
    "address": "Eerste Helmersstraat 249-H, 1054DX, Amsterdam",
    "phone": "",
    "website": "https://www.lalibela.nl/",
    "email": "",
    "instagram": "",
    "cuisine": "ethiopian",
    "opening_hours": "",
    "lat": 52.3609593,
    "lon": 4.865533,
    "osm_id": 1689127884
  },
  {
    "name": "Getto",
    "address": "Warmoesstraat 51, 1012HW, Amsterdam",
    "phone": "+31 20 421 5151",
    "website": "http://www.getto.nl",
    "email": "",
    "instagram": "",
    "cuisine": "burger",
    "opening_hours": "",
    "lat": 52.375358,
    "lon": 4.898286,
    "osm_id": 1696397267
  },
  {
    "name": "Kaagman & Kortekaas",
    "address": "Sint Nicolaasstraat 43, 1012NJ, Amsterdam",
    "phone": "+31 20 233 6544",
    "website": "https://www.kaagmanenkortekaas.nl",
    "email": "",
    "instagram": "",
    "cuisine": "french",
    "opening_hours": "Tu-Fr 18:00-01:00, Sa12:00-01:00, Su18:00-01:00",
    "lat": 52.3748089,
    "lon": 4.8924356,
    "osm_id": 1699862313
  },
  {
    "name": "Atrium",
    "address": "Amsterdam",
    "phone": "",
    "website": "",
    "email": "",
    "instagram": "",
    "cuisine": "",
    "opening_hours": "",
    "lat": 52.369028,
    "lon": 4.8955526,
    "osm_id": 1701389012
  },
  {
    "name": "De Smoeshaan",
    "address": "Amsterdam",
    "phone": "",
    "website": "",
    "email": "",
    "instagram": "",
    "cuisine": "international",
    "opening_hours": "",
    "lat": 52.3640307,
    "lon": 4.8805712,
    "osm_id": 1704746489
  },
  {
    "name": "Roberto's Restaurant",
    "address": "Apollolaan 138, 1077BG, Amsterdam",
    "phone": "+31 20 710 6025",
    "website": "http://www3.hilton.com/en/hotels/netherlands/hilton-amsterdam-AMSHITW/dining/index.html?WT.mc_id=zELWAKN0EMEA1HI2DMH3LocalSearch4DGGenericx6AMSHITW",
    "email": "robertos.amsterdam@hilton.com",
    "instagram": "",
    "cuisine": "italian",
    "opening_hours": "Mo-Su 07:00-22:30",
    "lat": 52.3514585,
    "lon": 4.8715594,
    "osm_id": 1708258875
  },
  {
    "name": "Kersentuin",
    "address": "Amsterdam",
    "phone": "",
    "website": "",
    "email": "",
    "instagram": "",
    "cuisine": "",
    "opening_hours": "",
    "lat": 52.3512586,
    "lon": 4.8743677,
    "osm_id": 1708258878
  },
  {
    "name": "Café Loetje",
    "address": "Johannes Vermeerstraat 52-H, 1071DT, Amsterdam",
    "phone": "+31 20 662 8173",
    "website": "https://www.loetje.nl/locaties/amsterdam-cafe/",
    "email": "",
    "instagram": "",
    "cuisine": "steak_house",
    "opening_hours": "Mo-Su 11:30-22:30",
    "lat": 52.3543672,
    "lon": 4.8842366,
    "osm_id": 1712460739
  },
  {
    "name": "Toko Sinar Mas",
    "address": "Hoofddorpplein 9, 1059CV, Amsterdam",
    "phone": "+31 20 669 1857",
    "website": "https://www.sinarmas.nl",
    "email": "sales@sinarmas.nl",
    "instagram": "",
    "cuisine": "asian",
    "opening_hours": "Mo-Fr 12:00-19:45, Sa 10:00-17:30",
    "lat": 52.350895,
    "lon": 4.8500652,
    "osm_id": 1712603322
  },
  {
    "name": "Bolenius",
    "address": "George Gershwinlaan 30, 1082MT, Amsterdam",
    "phone": "",
    "website": "https://www.bolenius-restaurant.nl/",
    "email": "",
    "instagram": "",
    "cuisine": "",
    "opening_hours": "",
    "lat": 52.3360706,
    "lon": 4.8737039,
    "osm_id": 1718653956
  },
  {
    "name": "New King",
    "address": "Zeedijk 115-117, 1012AV, Amsterdam",
    "phone": "+31 20 625 2180",
    "website": "",
    "email": "",
    "instagram": "",
    "cuisine": "chinese",
    "opening_hours": "",
    "lat": 52.3736127,
    "lon": 4.9003001,
    "osm_id": 1720286925
  },
  {
    "name": "Blin Queen",
    "address": "Amstel 102, 1017AD, Amsterdam",
    "phone": "",
    "website": "https://www.blinqueen.com",
    "email": "",
    "instagram": "@blinqueen.amsterdam",
    "cuisine": "breakfast;cake;coffee_shop;crepe;diner;pancake",
    "opening_hours": "Mo-Th 09:00-21:00; Fr 09:00-22:00; Sa-Su 09:00-18:00",
    "lat": 52.366956,
    "lon": 4.8968557,
    "osm_id": 1724319376
  },
  {
    "name": "Middl Eat",
    "address": "Reguliersdwarsstraat 21, 1017BJ, Amsterdam",
    "phone": "+31 20 845 8144",
    "website": "https://www.middleat-amsterdam.nl",
    "email": "",
    "instagram": "@middl.eat",
    "cuisine": "mediterranean",
    "opening_hours": "Mo-Fr 09:00-01:00; Sa-Su 09:00-03:00",
    "lat": 52.3666351,
    "lon": 4.8899888,
    "osm_id": 1741827384
  },
  {
    "name": "La Casa di Madonna",
    "address": "Reguliersdwarsstraat 31, 1017BJ, Amsterdam",
    "phone": "",
    "website": "https://casadimadonna.nl/",
    "email": "",
    "instagram": "",
    "cuisine": "italian",
    "opening_hours": "",
    "lat": 52.3665466,
    "lon": 4.8903128,
    "osm_id": 1741835157
  },
  {
    "name": "Gebr. Hartering",
    "address": "Peperstraat 10-huis, 1011TL, Amsterdam",
    "phone": "+31 20 421 0699",
    "website": "https://www.gebr-hartering.nl",
    "email": "",
    "instagram": "@gebrhartering",
    "cuisine": "meat",
    "opening_hours": "Mo-Su 18:00-22:00",
    "lat": 52.3716443,
    "lon": 4.9074757,
    "osm_id": 1749038791
  },
  {
    "name": "The Red Wine District",
    "address": "Sint Jacobsstraat 8, 1012NC, Amsterdam",
    "phone": "",
    "website": "",
    "email": "",
    "instagram": "",
    "cuisine": "",
    "opening_hours": "",
    "lat": 52.3765273,
    "lon": 4.8956641,
    "osm_id": 1757236729
  },
  {
    "name": "Tjing Tjing",
    "address": "Amsterdam",
    "phone": "",
    "website": "",
    "email": "",
    "instagram": "",
    "cuisine": "",
    "opening_hours": "",
    "lat": 52.3505332,
    "lon": 4.889167,
    "osm_id": 1767426728
  },
  {
    "name": "Shoarma Mesut 2",
    "address": "Amsterdam",
    "phone": "",
    "website": "",
    "email": "",
    "instagram": "",
    "cuisine": "",
    "opening_hours": "",
    "lat": 52.3728915,
    "lon": 4.8780769,
    "osm_id": 1772991831
  },
  {
    "name": "Toscanini Deli",
    "address": "Lindengracht 75, 1015KD, Amsterdam",
    "phone": "",
    "website": "https://restauranttoscanini.nl/",
    "email": "",
    "instagram": "",
    "cuisine": "italian",
    "opening_hours": "Mo-Th 18:00-23:00; Su off; Fr,Sa 12:00-14:30,18:00-24:00",
    "lat": 52.380166,
    "lon": 4.8852817,
    "osm_id": 1783971866
  },
  {
    "name": "Hakata Senpachi",
    "address": "Wielingenstraat 16, 1078KK, Amsterdam",
    "phone": "",
    "website": "https://www.hakatasenpachi.com",
    "email": "",
    "instagram": "@hakatasenpachi",
    "cuisine": "japanese",
    "opening_hours": "Mo off; Tu-Su 17:00-22:00",
    "lat": 52.3444664,
    "lon": 4.8893218,
    "osm_id": 1793882002
  },
  {
    "name": "Il Pecorino",
    "address": "Amsterdam",
    "phone": "",
    "website": "https://www.ilpecorino.nl",
    "email": "",
    "instagram": "",
    "cuisine": "italian",
    "opening_hours": "",
    "lat": 52.386837,
    "lon": 4.908566,
    "osm_id": 1799267537
  },
  {
    "name": "Takumi Ramen",
    "address": "Kinkerstraat 140, 1053EG, Amsterdam",
    "phone": "+31 20 3032868",
    "website": "https://takumiramennoodles.com/nl/amsterdam-dehallen/",
    "email": "kinkerstraat@takumiramen.nl",
    "instagram": "@takumiramenamsterdam",
    "cuisine": "asian;japanese;ramen",
    "opening_hours": "Mo-Sa 12:00-21:30; Su 12:00-21:00",
    "lat": 52.3665692,
    "lon": 4.8692063,
    "osm_id": 1815032695
  },
  {
    "name": "Srikandi",
    "address": "Stadhouderskade 31, 1071ZD, Amsterdam",
    "phone": "",
    "website": "",
    "email": "",
    "instagram": "",
    "cuisine": "indonesian",
    "opening_hours": "",
    "lat": 52.3614794,
    "lon": 4.8836467,
    "osm_id": 1827993011
  },
  {
    "name": "La Cantina",
    "address": "Gravenstraat 20, 1012NM, Amsterdam",
    "phone": "+31 20 786 7211",
    "website": "https://lacantinaamsterdam.nl/",
    "email": "info@lanactinaamsterdam.nl",
    "instagram": "",
    "cuisine": "italian",
    "opening_hours": "",
    "lat": 52.3742929,
    "lon": 4.8921822,
    "osm_id": 1886938076
  },
  {
    "name": "De Struisvogel",
    "address": "Keizersgracht 312, 1016EX, Amsterdam",
    "phone": "+31 20 423 3817",
    "website": "http://www.restaurantdestruisvogel.nl/",
    "email": "info@restaurantdestruisvogel.nl",
    "instagram": "",
    "cuisine": "",
    "opening_hours": "",
    "lat": 52.3704351,
    "lon": 4.8842823,
    "osm_id": 1886938094
  },
  {
    "name": "'t Zwaantje",
    "address": "Berenstraat 12, 1016GH, Amsterdam",
    "phone": "+31 20 623 2373",
    "website": "http://zwaantje-restaurant.nl/",
    "email": "info@zwaantje-restaurant.nl",
    "instagram": "",
    "cuisine": "",
    "opening_hours": "Mo-Su 16:30-23:00",
    "lat": 52.3704557,
    "lon": 4.8838082,
    "osm_id": 1886938104
  },
  {
    "name": "Lloyd Hotel",
    "address": "Amsterdam",
    "phone": "",
    "website": "",
    "email": "",
    "instagram": "",
    "cuisine": "",
    "opening_hours": "",
    "lat": 52.3741514,
    "lon": 4.9347391,
    "osm_id": 1890385348
  },
  {
    "name": "Al Argentino",
    "address": "Zeedijk 29A, 1012AP, Amsterdam",
    "phone": "+31 20 638 9340",
    "website": "https://www.alargentino.nl/",
    "email": "",
    "instagram": "",
    "cuisine": "steak",
    "opening_hours": "Mo-Su 12:00-23:00",
    "lat": 52.3756793,
    "lon": 4.9009356,
    "osm_id": 1904756910
  },
  {
    "name": "Azzurro",
    "address": "Zeedijk 46, 1012BA, Amsterdam",
    "phone": "",
    "website": "",
    "email": "",
    "instagram": "",
    "cuisine": "italian",
    "opening_hours": "",
    "lat": 52.3750547,
    "lon": 4.9008836,
    "osm_id": 1904756921
  },
  {
    "name": "Dum Dum Palace",
    "address": "Zeedijk 37, 1012AR, Amsterdam",
    "phone": "",
    "website": "",
    "email": "",
    "instagram": "",
    "cuisine": "chinese",
    "opening_hours": "",
    "lat": 52.375497,
    "lon": 4.9011058,
    "osm_id": 1904756954
  },
  {
    "name": "Wau",
    "address": "Amsterdam",
    "phone": "",
    "website": "",
    "email": "",
    "instagram": "",
    "cuisine": "malaysian",
    "opening_hours": "We-Mo 12:00-22:00",
    "lat": 52.3755423,
    "lon": 4.9010587,
    "osm_id": 1904756985
  },
  {
    "name": "Kyo",
    "address": "Koningsstraat 29, 1011ET, Amsterdam",
    "phone": "+31 20 354 1219",
    "website": "https://restaurantkyo.nl/",
    "email": "info@restaurantkyo.nl",
    "instagram": "",
    "cuisine": "japanese",
    "opening_hours": "We-Su",
    "lat": 52.3723595,
    "lon": 4.9020474,
    "osm_id": 1908229548
  },
  {
    "name": "Symphony's",
    "address": "George Gershwinlaan 22-28, 1082MT, Amsterdam",
    "phone": "",
    "website": "https://www.symphonys.nl",
    "email": "",
    "instagram": "",
    "cuisine": "international",
    "opening_hours": "",
    "lat": 52.3361779,
    "lon": 4.8742579,
    "osm_id": 1927265371
  },
  {
    "name": "Tanuki",
    "address": "Pieter Lastmanweg 9, Amstelveen",
    "phone": "",
    "website": "https://www.restaurant-tanuki.nl",
    "email": "",
    "instagram": "",
    "cuisine": "japanese",
    "opening_hours": "",
    "lat": 52.3026631,
    "lon": 4.8624811,
    "osm_id": 1927290379
  },
  {
    "name": "Ogìrì",
    "address": "Amsterdam",
    "phone": "",
    "website": "",
    "email": "",
    "instagram": "",
    "cuisine": "african",
    "opening_hours": "",
    "lat": 52.322785,
    "lon": 4.9729363,
    "osm_id": 1965702599
  },
  {
    "name": "Titus Parrilla",
    "address": "Rembrandtplein 7, 1017CT, Amsterdam",
    "phone": "",
    "website": "",
    "email": "Haagen-Dazs.Rembrandtplein@genmills.com",
    "instagram": "",
    "cuisine": "argentinian",
    "opening_hours": "",
    "lat": 52.366428,
    "lon": 4.896148,
    "osm_id": 1984268522
  },
  {
    "name": "Mi-Gudu",
    "address": "Wijttenbachstraat 390, 1093JK, Amsterdam",
    "phone": "",
    "website": "",
    "email": "",
    "instagram": "",
    "cuisine": "",
    "opening_hours": "",
    "lat": 52.3610354,
    "lon": 4.9300561,
    "osm_id": 2013949592
  },